{
    "Locations": [
        {
            "DisplayName": "หจก. แกลงพงษ์เซอร์วิส",
            "AddressLine1": "44 ม.3",
            "AddressLine2": "ทางเกวียน",
            "City": "อำเภอแกลง",
            "StateProvince": "ระยอง",
            "PostalCode": "21110",
            "Telephone": "038-671-916",
            "WeeklyOperatingHours": "จันทร์ - เสาร์",
            "HoursOfOperation24": [
                {
                    "day": "",
                    "hours": "8:00 - 17:00"
                }
            ],
            "Products": "[Mobil Super 2000 Turbospeed 10W-30;]|[Mobil Super 2000 X2 10W-40;]|[Mobil Super 1000 Turbospeed 15W-40;]|[Mobil Super 3000 5W-30;]"
        },
        {
            "DisplayName": "รุจิราคาร์แคร์",
            "AddressLine1": "118 ม.4",
            "AddressLine2": "ห้วยยาง",
            "City": "อำเภอแกลง",
            "StateProvince": "ระยอง",
            "PostalCode": "21110",
            "Telephone": "086-389-7720",
            "WeeklyOperatingHours": "จันทร์ - เสาร์",
            "HoursOfOperation24": [
                {
                    "day": "",
                    "hours": "8:00 - 17:00"
                }
            ],
            "Products": "[Mobil 1 5W-50;]|[Mobil 1 Turbo Diesel 5W-40;]|[Mobil Super 2000 Turbospeed 10W-30;]"
        },
        {
            "DisplayName": "บริษัท แอลที ออโต้ จำกัด",
            "AddressLine1": "67/3 ม.2",
            "AddressLine2": "หนองตะพาน",
            "City": "อำเภอบ้านค่าย",
            "StateProvince": "ระยอง",
            "PostalCode": "21120",
            "Telephone": "085-090-5595",
            "WeeklyOperatingHours": "จันทร์ - เสาร์",
            "HoursOfOperation24": [
                {
                    "day": "",
                    "hours": "8:00 - 17:00"
                }
            ],
            "Products": "[Mobil 1 0W-40;]|[Mobil 1 5W-30;]|[Mobil 1 5W-50;]|[Mobil 1 Turbo Diesel 5W-40;]|[Mobil Super 2000 Turbospeed 10W-30;]"
        },
        {
            "DisplayName": "ระยองออโต้พาร์ทแอนด์เซอร์วิส",
            "AddressLine1": "218/9 ม.5 ถ.สุขุมวิท",
            "AddressLine2": "เนินพระ",
            "City": "อำเภอเมืองระยอง",
            "StateProvince": "ระยอง",
            "PostalCode": "21150",
            "Telephone": "089-749-5549",
            "WeeklyOperatingHours": "จันทร์ - เสาร์",
            "HoursOfOperation24": [
                {
                    "day": "",
                    "hours": "8:00 - 17:00"
                }
            ],
            "Products": "[Mobil 1 5W-30;]|[Mobil 1 5W-50;]|[Mobil Super 2000 X2 10W-40;]"
        },
        {
            "DisplayName": "บริษัท มิสเตอร์เจ ออโต้ เซอร์วิส จำ",
            "AddressLine1": "265 ถ.สุุขุมวิท",
            "AddressLine2": "มาบตาพุด",
            "City": "อำเภอเมืองระยอง",
            "StateProvince": "ระยอง",
            "PostalCode": "21150",
            "Telephone": "038-608-071",
            "WeeklyOperatingHours": "จันทร์ - เสาร์",
            "HoursOfOperation24": [
                {
                    "day": "",
                    "hours": "8:00 - 17:00"
                }
            ],
            "Products": "[Mobil 1 0W-40;]|[Mobil 1 5W-50;]|[Mobil 1 Turbo Diesel 5W-40;]|[Mobil Super 2000 Turbospeed 10W-30;]"
        },
        {
            "DisplayName": "หจก ศิริวัฒน์นกรณ์",
            "AddressLine1": "349 ม.2",
            "AddressLine2": "หนองไผ่แก้ว",
            "City": "อำเภอบ้านบึง",
            "StateProvince": "ชลบุรี",
            "PostalCode": "20220",
            "Telephone": "038-292-323",
            "WeeklyOperatingHours": "จันทร์ - เสาร์",
            "HoursOfOperation24": [
                {
                    "day": "",
                    "hours": "8:00 - 17:00"
                }
            ],
            "Products": "[Mobil Super 2000 Turbospeed 10W-30;]|[Mobil Super 2000 X2 10W-40;]|[Mobil Super 1000 Turbospeed 15W-40;]|[Mobil Delvac 1400 15W-40;]"
        },
        {
            "DisplayName": "สมชายไดนาโม",
            "AddressLine1": "113/11 ม.3",
            "AddressLine2": "บ้านบึง",
            "City": "อำเภอศรีราชา",
            "StateProvince": "ชลบุรี",
            "PostalCode": "20110",
            "Telephone": "083-885-5522",
            "WeeklyOperatingHours": "จันทร์ - เสาร์",
            "HoursOfOperation24": [
                {
                    "day": "",
                    "hours": "8:00 - 17:00"
                }
            ],
            "Products": "[Mobil Super 2000 Turbospeed 10W-30;]|[Mobil Super 2000 X2 10W-40;]|[Mobil Delvac Super 1400 15W-40;]|[Mobil Super 1000 Turbospeed 15W-40;]"
        },
        {
            "DisplayName": "ปราโมทย์ เซอร์วิส",
            "AddressLine1": "275/5 ม.4 ซ.ชัยพรวิถี",
            "AddressLine2": "นาเกลือ",
            "City": "อำเภอบางละมุง",
            "StateProvince": "ชลบุรี",
            "PostalCode": "20150",
            "Telephone": "087-6158850",
            "WeeklyOperatingHours": "จันทร์ - เสาร์",
            "HoursOfOperation24": [
                {
                    "day": "",
                    "hours": "8:00 - 17:00"
                }
            ],
            "Products": "[Mobil 1 0W-40;]|[Mobil 1 5W-30;]|[Mobil 1 5W-50;]|[Mobil 1 Turbo Diesel 5W-40;]|[Mobil Super 2000 X2 10W-40;]|[Mobil Super 2000 Turbospeed 10W-30;]"
        },
        {
            "DisplayName": "อู่ ติ๊กบริการ",
            "AddressLine1": "137/2 ถ.สุขุมวิท",
            "AddressLine2": "ศรีราชา",
            "City": "อำเภอศรีราชา",
            "StateProvince": "ชลบุรี",
            "PostalCode": "20110",
            "Telephone": "081-861-7880",
            "WeeklyOperatingHours": "จันทร์ - เสาร์",
            "HoursOfOperation24": [
                {
                    "day": "",
                    "hours": "8:00 - 17:00"
                }
            ],
            "Products": "[Mobil Super 2000 Turbospeed 10W-30;]|[Mobil Super 2000 X2 10W-40;]|[Mobil 1 Turbo Diesel 5W-40;]|[Mobil 1 5W-30;]"
        },
        {
            "DisplayName": "หจก. สินปภานนท์",
            "AddressLine1": "69/140 ม.2 ถ.สุขุมวิท ซอยอุดมศิลป์",
            "AddressLine2": "ท้ายบ้าน",
            "City": "อำเภอเมืองสมุทรปราการ",
            "StateProvince": "สมุทรปราการ",
            "PostalCode": "10280",
            "Telephone": "081-8647346",
            "WeeklyOperatingHours": "จันทร์ - เสาร์",
            "HoursOfOperation24": [
                {
                    "day": "",
                    "hours": "8:00 - 17:00"
                }
            ],
            "Products": "[Mobil Super 2000 Turbospeed 10W-30;]|[Mobil Super 2000 X2 10W-40;]|[Mobil Super 1000 Turbospeed 15W-40;]|[Mobil Delvac MX 15W-40;]"
        },
        {
            "DisplayName": "บริษัท บี แอนด์ บี เซอร์วิส (หนองมนจำกัด",
            "AddressLine1": "309/2 ถ.สุขุมวิท",
            "AddressLine2": "แสนสุข",
            "City": "อำเภอเมืองชลบุรี",
            "StateProvince": "ชลบุรี",
            "PostalCode": "20130",
            "Telephone": "085-394-8555",
            "WeeklyOperatingHours": "จันทร์ - เสาร์",
            "HoursOfOperation24": [
                {
                    "day": "",
                    "hours": "8:00 - 17:00"
                }
            ],
            "Products": "[Mobil 1 0W-40;]|[Mobil 1 5W-50;]|[Mobil 1 Turbo Diesel 5W-40;]|[Mobil Super 2000 Turbospeed 10W-30;]|[Mobil Super 2000 X2 10W-40;]"
        },
        {
            "DisplayName": "บริษัท คลาสสิค ชอป จำกัด (สำนักงานใหญ่)",
            "AddressLine1": "38/115 ม.3",
            "AddressLine2": "บ้านสวน",
            "City": "อำเภอเมืองชลบุรี",
            "StateProvince": "ชลบุรี",
            "PostalCode": "20000",
            "Telephone": "089-120-2077",
            "WeeklyOperatingHours": "จันทร์ - เสาร์",
            "HoursOfOperation24": [
                {
                    "day": "",
                    "hours": "8:00 - 17:00"
                }
            ],
            "Products": "[Mobil 1 0W-40;]|[Mobil 1 5W-30;]|[Mobil Super 2000 Turbospeed 10W-30;]"
        },
        {
            "DisplayName": "ประยูรกิจ ออโต้ไทร์",
            "AddressLine1": "35/21-24  ม.1",
            "AddressLine2": "นาป่า",
            "City": "อำเภอเมืองชลบุรี",
            "StateProvince": "ชลบุรี",
            "PostalCode": "20000",
            "Telephone": "038-786-633",
            "WeeklyOperatingHours": "จันทร์ - เสาร์",
            "HoursOfOperation24": [
                {
                    "day": "",
                    "hours": "8:00 - 17:00"
                }
            ],
            "Products": "[Mobil 1 0W-40;]|[Mobil 1 5W-30;]|[Mobil 1 5W-50;]|[Mobil 1 Turbo Diesel 5W-40;]|[Mobil Super 2000 Turbospeed 10W-30;]"
        },
        {
            "DisplayName": "พนมคาร์แคร์",
            "AddressLine1": "65/3 ม.1 ถ.ฉะเชิงเทรา-กบินทร์บุรี",
            "AddressLine2": "พนมสารคาม",
            "City": "อำเภอพนมสารคาม",
            "StateProvince": "ฉะเชิงเทรา",
            "PostalCode": "24120",
            "Telephone": "081-933-0211",
            "WeeklyOperatingHours": "จันทร์ - เสาร์",
            "HoursOfOperation24": [
                {
                    "day": "",
                    "hours": "8:00 - 17:00"
                }
            ],
            "Products": "[Mobil Super 2000 Turbospeed 10W-30;]|[Mobil Super 2000 X2 10W-40;]|[Mobil Super 1000 Turbospeed 15W-40;]|[Mobil Delvac 1400 15W-40;]"
        },
        {
            "DisplayName": "อู่ สมัยศึกการช่าง",
            "AddressLine1": "145 ถ.ฉะเชิงเทรา-บางปะกง",
            "AddressLine2": "หน้าเมือง",
            "City": "อำเภอเมืองฉะเชิงเทรา",
            "StateProvince": "ฉะเชิงเทรา",
            "PostalCode": "24000",
            "Telephone": "080-090-5209",
            "WeeklyOperatingHours": "จันทร์ - เสาร์",
            "HoursOfOperation24": [
                {
                    "day": "",
                    "hours": "8:00 - 17:00"
                }
            ],
            "Products": "[Mobil 1 0W-40;]|[Mobil Super 2000 Turbospeed 10W-30;]|[Mobil Super 2000 X2 10W-40;]|[Mobil Super 1000 Turbospeed 15W-40;]"
        },
        {
            "DisplayName": "พีระพัฒน์    เซอร์วิส",
            "AddressLine1": "44/1 ม.1 ถ.บางนา-ตราด",
            "AddressLine2": "ศีรษะจรเข้ใหญ่",
            "City": "อำเภอบางเสาธง",
            "StateProvince": "สมุทรปราการ",
            "PostalCode": "10540",
            "Telephone": "081-839-4947",
            "WeeklyOperatingHours": "จันทร์ - เสาร์",
            "HoursOfOperation24": [
                {
                    "day": "",
                    "hours": "8:00 - 17:00"
                }
            ],
            "Products": "[Mobil Super 2000 Turbospeed 10W-30;]|[Mobil Super 2000 X2 10W-40;]|[Mobil Super 1000 Turbospeed 15W-40;]|[Mobil Delvac MX 15W-40;]"
        },
        {
            "DisplayName": "มังกี้ เซอร์วิส",
            "AddressLine1": "118 ม.12 ถ.สุขาภิบาล 6 ซ.สุกไสว1",
            "AddressLine2": "บางพลีใหญ่",
            "City": "อำเภอบางพลี",
            "StateProvince": "สมุทรปราการ",
            "PostalCode": "10540",
            "Telephone": "081-751-1781",
            "WeeklyOperatingHours": "จันทร์ - เสาร์",
            "HoursOfOperation24": [
                {
                    "day": "",
                    "hours": "8:00 - 17:00"
                }
            ],
            "Products": "[Mobil 1 0W-40;]|[Mobil 1 5W-30;]|[Mobil 1 5W-50;]|[Mobil 1 Turbo Diesel 5W-40;]|[Mobil Super 2000 Turbospeed 10W-30;]"
        },
        {
            "DisplayName": "บริษัท เบนซ์ เอส ดับบลิว มอเตอร์ จำสำนักงานใหญ่",
            "AddressLine1": "555 ม.14",
            "AddressLine2": "บางพลีใหญ่",
            "City": "อำเภอบางพลี",
            "StateProvince": "สมุทรปราการ",
            "PostalCode": "10540",
            "Telephone": "02-316-1555",
            "WeeklyOperatingHours": "จันทร์ - เสาร์",
            "HoursOfOperation24": [
                {
                    "day": "",
                    "hours": "8:00 - 17:00"
                }
            ],
            "Products": "[Mobil 1 0W-40;]|[Mobil 1 5W-30;]|[Mobil 1 5W-50;]|[Mobil 1 Turbo Diesel 5W-40;]"
        },
        {
            "DisplayName": "พีพีเค คาร์ วอร์ซ แอนด์ สปา",
            "AddressLine1": "888 หมู่8ถ.เทพารักษ์",
            "AddressLine2": "เทพารักษ์",
            "City": "อำเภอเมืองสมุทรปราการ",
            "StateProvince": "สมุทรปราการ",
            "PostalCode": "10270",
            "Telephone": "081-913-0085",
            "WeeklyOperatingHours": "จันทร์ - เสาร์",
            "HoursOfOperation24": [
                {
                    "day": "",
                    "hours": "8:00 - 17:00"
                }
            ],
            "Products": "[Mobil 1 0W-40;]|[Mobil 1 5W-30;]|[Mobil 1 5W-50;]|[Mobil 1 Turbo Diesel 5W-40;]|[Mobil Super 2000 Turbospeed 10W-30;]"
        },
        {
            "DisplayName": "บุญเอกกลการ",
            "AddressLine1": "528/19 ถ.สุขุมวิท",
            "AddressLine2": "ปากน้ำ",
            "City": "อำเภอเมืองสมุทรปราการ",
            "StateProvince": "สมุทรปราการ",
            "PostalCode": "10270",
            "Telephone": "02-387-1012",
            "WeeklyOperatingHours": "จันทร์ - เสาร์",
            "HoursOfOperation24": [
                {
                    "day": "",
                    "hours": "8:00 - 17:00"
                }
            ],
            "Products": "[Mobil 1 5W-30;]|[Mobil 1 5W-50;]|[Mobil 1 Turbo Diesel 5W-40;]|[Mobil Super 2000 Turbospeed 10W-30;]"
        },
        {
            "DisplayName": "ศรีสุขศูนย์ล้อ",
            "AddressLine1": "175/1",
            "AddressLine2": "ท้ายบ้านใหม่",
            "City": "อำเภอเมืองสมุทรปราการ",
            "StateProvince": "สมุทรปราการ",
            "PostalCode": "10280",
            "Telephone": "086-855-4554",
            "WeeklyOperatingHours": "จันทร์ - เสาร์",
            "HoursOfOperation24": [
                {
                    "day": "",
                    "hours": "8:00 - 17:00"
                }
            ],
            "Products": "[Mobil 1 0W-40;]|[Mobil 1 5W-30;]|[Mobil 1 5W-50;]|[Mobil 1 Turbo Diesel 5W-40;]|[Mobil Super 2000 Turbospeed 10W-30;]"
        },
        {
            "DisplayName": "กว้างกลการเบรคครัช",
            "AddressLine1": "63/11-12 ถ.สุขุมวิท",
            "AddressLine2": "ปากน้ำ",
            "City": "อำเภอเมืองสมุทรปราการ",
            "StateProvince": "สมุทรปราการ",
            "PostalCode": "10270",
            "Telephone": "086-317-4343",
            "WeeklyOperatingHours": "จันทร์ - เสาร์",
            "HoursOfOperation24": [
                {
                    "day": "",
                    "hours": "8:00 - 17:00"
                }
            ],
            "Products": "[Mobil Super 2000 Turbospeed 10W-30;]|[Mobil Super 2000 X2 10W-40;]|[Mobil Super 3000 X2 5W-40;]"
        },
        {
            "DisplayName": "อู่ จิ๋ว เซอร์วิส 1999",
            "AddressLine1": "5/5 ซ.อุดมสุข60",
            "AddressLine2": "หนองบอน",
            "City": "เขตประเวศ",
            "StateProvince": "กรุงเทพมหานคร",
            "PostalCode": "10250",
            "Telephone": "02-746-5668",
            "WeeklyOperatingHours": "จันทร์ - เสาร์",
            "HoursOfOperation24": [
                {
                    "day": "",
                    "hours": "8:00 - 17:00"
                }
            ],
            "Products": "[Mobil 1 0W-40;]|[Mobil 1 5W-30;]|[Mobil 1 5W-50;]|[Mobil 1 Turbo Diesel 5W-40;]|[Mobil Super 2000 Turbospeed 10W-30;]"
        },
        {
            "DisplayName": "เอ็มออโต้เซอร์วิส",
            "AddressLine1": "12 ซ.ลาซาล43",
            "AddressLine2": "บางนา",
            "City": "เขตบางนา",
            "StateProvince": "กรุงเทพมหานคร",
            "PostalCode": "10260",
            "Telephone": "081-817-1565",
            "WeeklyOperatingHours": "จันทร์ - เสาร์",
            "HoursOfOperation24": [
                {
                    "day": "",
                    "hours": "8:00 - 17:00"
                }
            ],
            "Products": "[Mobil 1 0W-40;]|[Mobil 1 5W-30;]|[Mobil 1 5W-50;]|[Mobil 1 Turbo Diesel 5W-40;]|[Mobil Super 2000 Turbospeed 10W-30;]"
        },
        {
            "DisplayName": "อิเล็คทริคคาร์",
            "AddressLine1": "329/5 ม.4",
            "AddressLine2": "สำโรงเหนือ",
            "City": "อำเภอเมืองสมุทรปราการ",
            "StateProvince": "สมุทรปราการ",
            "PostalCode": "10270",
            "Telephone": "02-758-4626",
            "WeeklyOperatingHours": "จันทร์ - เสาร์",
            "HoursOfOperation24": [
                {
                    "day": "",
                    "hours": "8:00 - 17:00"
                }
            ],
            "Products": "[Mobil 1 0W-40;]|[Mobil 1 5W-30;]|[Mobil 1 5W-50;]|[Mobil 1 Turbo Diesel 5W-40;]|[Mobil Super 2000 Turbospeed 10W-30;]"
        },
        {
            "DisplayName": "บริษัท พรชัยคาร์เซอร์วิส จำกัด",
            "AddressLine1": "225 ม.1 ถ.สุวินทวงศ์",
            "AddressLine2": "รอบเมือง",
            "City": "อำเภอเมืองปราจีนบุรี",
            "StateProvince": "ปราจีนบุรี",
            "PostalCode": "25000",
            "Telephone": "084-5245625",
            "WeeklyOperatingHours": "จันทร์ - เสาร์",
            "HoursOfOperation24": [
                {
                    "day": "",
                    "hours": "8:00 - 17:00"
                }
            ],
            "Products": "[Mobil 1 5W-30;]|[Mobil 1 5W-50;]|[Mobil 1 Turbo Diesel 5W-40;]|[Mobil Super 2000 Turbospeed 10W-30;]"
        },
        {
            "DisplayName": "หจก. เค พี เอ็ม เรซ พาร์ท",
            "AddressLine1": "32/37 ม.2 ถ.มิตรไมตรี",
            "AddressLine2": "คู้ฝั่งเหนือ",
            "City": "เขตหนองจอก",
            "StateProvince": "กรุงเทพมหานคร",
            "PostalCode": "10530",
            "Telephone": "02-042-0607",
            "WeeklyOperatingHours": "จันทร์ - เสาร์",
            "HoursOfOperation24": [
                {
                    "day": "",
                    "hours": "8:00 - 17:00"
                }
            ],
            "Products": "[Mobil 1 5W-30;]|[Mobil 1 5W-50;]|[Mobil Super 2000 Turbospeed 10W-30;]|[Mobil Super 2000 X2 10W-40;]"
        },
        {
            "DisplayName": "เบนซ์กรุงเทพกรีฑา",
            "AddressLine1": "496 ถ.ศรีนครินทร์",
            "AddressLine2": "สวนหลวง",
            "City": "เขตสวนหลวง",
            "StateProvince": "กรุงเทพมหานคร",
            "PostalCode": "10250",
            "Telephone": "02-704-4416",
            "WeeklyOperatingHours": "จันทร์ - เสาร์",
            "HoursOfOperation24": [
                {
                    "day": "",
                    "hours": "8:00 - 17:00"
                }
            ],
            "Products": "[Mobil 1;]|[Mobil Super 2000 X2 10W-40;]"
        },
        {
            "DisplayName": "บริษัท แทน ออโตโมบิล จำกัด",
            "AddressLine1": "24 ม.1",
            "AddressLine2": "คลองเกลือ",
            "City": "อำเภอปากเกร็ด",
            "StateProvince": "นนทบุรี",
            "PostalCode": "11120",
            "Telephone": "081-655-6251",
            "WeeklyOperatingHours": "จันทร์ - เสาร์",
            "HoursOfOperation24": [
                {
                    "day": "",
                    "hours": "8:00 - 17:00"
                }
            ],
            "Products": "[Mobil 1 5W-50;]|[Mobil Super 2000 X2 10W-40;]|[Mobil Super 1000 X2 20W-50;]"
        },
        {
            "DisplayName": "บริษัท ไทแท็น มอเตอร์ เซอร์วิส จำกั",
            "AddressLine1": "838/76 ซ.อยู่เจริญ29",
            "AddressLine2": "สามเสนนอก",
            "City": "เขตห้วยขวาง",
            "StateProvince": "กรุงเทพมหานคร",
            "PostalCode": "10310",
            "Telephone": "081-428-5335",
            "WeeklyOperatingHours": "จันทร์ - เสาร์",
            "HoursOfOperation24": [
                {
                    "day": "",
                    "hours": "8:30 - 17:30"
                }
            ],
            "Products": "[Mobil 1 0W-40;]|[Mobil 1 5W-30;]|[Mobil 1 5W-50;]|[Mobil 1 Turbo Diesel 5W-40;]"
        },
        {
            "DisplayName": "Cozy car care",
            "AddressLine1": "ถ. เลียบทางด่วนประชาอุทิศ",
            "AddressLine2": "ทุ่งครุ",
            "City": "เขตทุ่งครุ",
            "StateProvince": "กรุงเทพมหานคร",
            "PostalCode": "10140",
            "Telephone": "08-6503-1588",
            "WeeklyOperatingHours": "จันทร์ - เสาร์",
            "HoursOfOperation24": [
                {
                    "day": "",
                    "hours": "8:00 - 17:00"
                }
            ],
            "Products": "[Mobil Super 2000 Turbospeed 10W-30;]|[Mobil Super 2000 X2 10W-40;]"
        },
        {
            "DisplayName": "บริษัท แมคคอย ออโต้เอ็กซเพิร์ท จำกัด",
            "AddressLine1": "22/1,22/2 ถ.เลียบทางด่วน",
            "AddressLine2": "ทุ่งครุ",
            "City": "เขตทุ่งครุ",
            "StateProvince": "กรุงเทพมหานคร",
            "PostalCode": "10140",
            "Telephone": "02-426-1500",
            "WeeklyOperatingHours": "จันทร์ - เสาร์",
            "HoursOfOperation24": [
                {
                    "day": "",
                    "hours": "8:00 - 17:00"
                }
            ],
            "Products": "[Mobil 1 5W-30;]|[Mobil 1 5W-50;]|[Mobil 1 Turbo Diesel 5W-40;]|[Mobil Super 2000 Turbospeed 10W-30;]"
        },
        {
            "DisplayName": "เบนซ์สุขุมวิท 47",
            "AddressLine1": "837/1 ถ.สุขุมวิท (ระหว่างซอย 45-47)",
            "AddressLine2": "คลองตันเหนือ",
            "City": "เขตวัฒนา",
            "StateProvince": "กรุงเทพมหานคร",
            "PostalCode": "10110",
            "Telephone": "086-8463088",
            "WeeklyOperatingHours": "จันทร์ - เสาร์",
            "HoursOfOperation24": [
                {
                    "day": "",
                    "hours": "8:00 - 17:30"
                }
            ],
            "Products": "[Mobil 1 0W-40;]|[Mobil 1 5W-50;]|[Mobil 1 Turbo Diesel 5W-40;]|[Mobil Super 2000 X2 10W-40;]"
        },
        {
            "DisplayName": "บริษัท อู่ สุเทพ เซอร์วิส จำกัด",
            "AddressLine1": "168 ถ.รัชดา-รามอินทรา",
            "AddressLine2": "คลองกุ่ม",
            "City": "เขตบึงกุ่ม",
            "StateProvince": "กรุงเทพมหานคร",
            "PostalCode": "10230",
            "Telephone": "02-932-8972-3",
            "WeeklyOperatingHours": "จันทร์ - เสาร์",
            "HoursOfOperation24": [
                {
                    "day": "",
                    "hours": "8:00 - 17:00"
                }
            ],
            "Products": "[Mobil 1 0W-40;]|[Mobil 1 5W-30;]|[Mobil 1 5W-50;]|[Mobil 1 Turbo Diesel 5W-40;]"
        },
        {
            "DisplayName": "หจก. พี.ริช.ออโต้พาร์ท",
            "AddressLine1": "6 ถ.สังคมสงเคราะห์",
            "AddressLine2": "ลาดพร้าว",
            "City": "เขตลาดพร้าว",
            "StateProvince": "กรุงเทพมหานคร",
            "PostalCode": "10230",
            "Telephone": "02-955-9706",
            "WeeklyOperatingHours": "จันทร์ - เสาร์",
            "HoursOfOperation24": [
                {
                    "day": "",
                    "hours": "8:00 - 17:00"
                }
            ],
            "Products": "[Mobil 1 0W-40;]|[Mobil 1 5W-30;]|[Mobil 1 5W-50;]|[Mobil 1 Turbo Diesel 5W-40;]|[Mobil Super 2000 Turbospeed 10W-30;]"
        },
        {
            "DisplayName": "หจก. 2001 ออโต้เซอร์วิส",
            "AddressLine1": "1192 ซ.ลาดพร้าว87(จันทราสุข)",
            "AddressLine2": "คลองจั่น",
            "City": "เขตบางกะปิ",
            "StateProvince": "กรุงเทพมหานคร",
            "PostalCode": "10240",
            "Telephone": "02-539-0069",
            "WeeklyOperatingHours": "จันทร์ - เสาร์",
            "HoursOfOperation24": [
                {
                    "day": "",
                    "hours": "8:00 - 17:00"
                }
            ],
            "Products": "[Mobil 1 5W-50;]|[Mobil 1 Turbo Diesel 5W-40;]|[Mobil Super 2000 Turbospeed 10W-30;]"
        },
        {
            "DisplayName": "บริษัท เนตร ออโต้ เซอร์วิส จำกัด",
            "AddressLine1": "19/191 ซ.ลาดพร้าว-วังหิน7",
            "AddressLine2": "ลาดพร้าว",
            "City": "เขตลาดพร้าว",
            "StateProvince": "กรุงเทพมหานคร",
            "PostalCode": "10230",
            "Telephone": "0-2931-7183",
            "WeeklyOperatingHours": "จันทร์ - เสาร์",
            "HoursOfOperation24": [
                {
                    "day": "",
                    "hours": "8:00 - 17:00"
                }
            ],
            "Products": "[Mobil 1 0W-40;]|[Mobil 1 5W-30;]|[Mobil 1 5W-50;]|[Mobil 1 Turbo Diesel 5W-40;]|[Mobil Super 2000 Turbospeed 10W-30;]"
        },
        {
            "DisplayName": "บริษัท ธนบุรีเซ็นเตอร์เซอร์วิส จำกัด",
            "AddressLine1": "537-539 ถ.สมเด็จพระเจ้าตากสิน",
            "AddressLine2": "บุคคโล",
            "City": "เขตธนบุรี",
            "StateProvince": "กรุงเทพมหานคร",
            "PostalCode": "10600",
            "Telephone": "02-476-2087-8",
            "WeeklyOperatingHours": "จันทร์ - เสาร์",
            "HoursOfOperation24": [
                {
                    "day": "",
                    "hours": "8:00 - 17:00"
                }
            ],
            "Products": "[Mobil 1 0W-40;]|[Mobil 1 5W-30;]|[Mobil 1 5W-50;]|[Mobil 1 Turbo Diesel 5W-40;]|[Mobil Super 2000 Turbospeed 10W-30;]"
        },
        {
            "DisplayName": "บริษัท อมร แคร์ จำกัด",
            "AddressLine1": "60 ถ.รัชดาภิเษก ซ.เฉลิมสุข",
            "AddressLine2": "จันทรเกษม",
            "City": "เขตจตุจักร",
            "StateProvince": "กรุงเทพมหานคร",
            "PostalCode": "10900",
            "Telephone": "02-939-0055",
            "WeeklyOperatingHours": "จันทร์ - เสาร์",
            "HoursOfOperation24": [
                {
                    "day": "",
                    "hours": "8:00 - 17:00"
                }
            ],
            "Products": "[Mobil 1 0W-40;]|[Mobil 1 5W-50;]|[Mobil 1 Turbo Diesel 5W-40;]|[Mobil Super 2000 Turbospeed 10W-30;]"
        },
        {
            "DisplayName": "บริษัท เอ เอ็ม อาร์ ออโต้พาร์ทแอนด์ เซอร์วิส จำกัด",
            "AddressLine1": "60 ถ.รัชดาภิเษก ซ.เฉลิมสุข",
            "AddressLine2": "จันทรเกษม",
            "City": "เขตจตุจักร",
            "StateProvince": "กรุงเทพมหานคร",
            "PostalCode": "10900",
            "Telephone": "083-0962034",
            "WeeklyOperatingHours": "จันทร์ - เสาร์",
            "HoursOfOperation24": [
                {
                    "day": "",
                    "hours": "8:00 - 18:00"
                }
            ],
            "Products": "[Mobil 1 5W-50;]|[Mobil 1 Turbo Diesel 5W-40;]|[Mobil Delvac MX 15W-40;]|[Mobil Super 2000 X2 10W-40;]"
        },
        {
            "DisplayName": "กัลปพฤกษ์ มอเตอร์",
            "AddressLine1": "67/518 ม.4 ถ.เอกชัย",
            "AddressLine2": "โคกขาม",
            "City": "อำเภอเมืองสมุทรสาคร",
            "StateProvince": "สมุทรสาคร",
            "PostalCode": "74000",
            "Telephone": "081-822-4224",
            "WeeklyOperatingHours": "จันทร์ - เสาร์",
            "HoursOfOperation24": [
                {
                    "day": "",
                    "hours": "8:00 - 17:00"
                }
            ],
            "Products": "[Mobil 1 5W-50;]|[Mobil 1 Turbo Diesel 5W-40;]"
        },
        {
            "DisplayName": "ร้าน ธนวุฒิ",
            "AddressLine1": "51 ม.5",
            "AddressLine2": "ทรายมูล",
            "City": "อำเภอองครักษ์",
            "StateProvince": "นครนายก",
            "PostalCode": "26120",
            "Telephone": "081-9132864",
            "WeeklyOperatingHours": "จันทร์ - เสาร์",
            "HoursOfOperation24": [
                {
                    "day": "",
                    "hours": "8:00 - 17:00"
                }
            ],
            "Products": "[Mobil 1 0W-40;]|[Mobil 1 5W-30;]|[Mobil 1 5W-50;]|[Mobil 1 Turbo Diesel 5W-40;]|[Mobil Super 2000 Turbospeed 10W-30;]"
        },
        {
            "DisplayName": "หจก.บีเอ็มราชพฤกษ์",
            "AddressLine1": "4/9 ม.5 ซ.วัดกระโจมทอง.ถ.บางพรม ต.บางพรม",
            "AddressLine2": "",
            "City": "ตลิ่งชัน",
            "StateProvince": "กรุงเทพมหานคร",
            "PostalCode": "10170",
            "Telephone": "02-4108584",
            "WeeklyOperatingHours": "จันทร์ - เสาร์",
            "HoursOfOperation24": [
                {
                    "day": "",
                    "hours": "8:00 - 17:00"
                }
            ],
            "Products": "[Mobil 1 0W-40;]|[Mobil 1 5W-50;]|[Mobil Super 2000 Turbospeed 10W-30;]|[Mobil Super 2000 X2 10W-40;]"
        },
        {
            "DisplayName": "J work autosports",
            "AddressLine1": "93/3 ถ.สิรินธร ซอยจรัลลาภ",
            "AddressLine2": "",
            "City": "เขตบางพลัด",
            "StateProvince": "กรุงเทพมหานคร",
            "PostalCode": "10700",
            "Telephone": "093 434 5353",
            "WeeklyOperatingHours": "จันทร์ - เสาร์",
            "HoursOfOperation24": [
                {
                    "day": "",
                    "hours": "8:00 - 17:00"
                }
            ],
            "Products": "[Mobil 1 Turbo Diesel 5W-40;]|[Mobil 1 5W-50;]"
        },
        {
            "DisplayName": "หจก.นิรันดร์เบนซ์ เซอร์วิส",
            "AddressLine1": "43710 ถ.ราชมนตรี แขวงบางแคเหนือ",
            "AddressLine2": "",
            "City": "เขตบางแค",
            "StateProvince": "กรุงเทพมหานคร",
            "PostalCode": "10160",
            "Telephone": "02-0545551",
            "WeeklyOperatingHours": "จันทร์ - เสาร์",
            "HoursOfOperation24": [
                {
                    "day": "",
                    "hours": "8:00 - 17:00"
                }
            ],
            "Products": "[Mobil 1 5W-50;]|[Mobil Super 2000 X2 10W-40;]|[Mobil Super 1000 X2 20W-50;]"
        },
        {
            "DisplayName": "ณัฐกิตต์อะไหล่ยนต์",
            "AddressLine1": "33/21 ม.5 ถ.เสมาฟ้าคราม ซ.ลำลูกกา11/10",
            "AddressLine2": "คูคต",
            "City": "อำเภอลำลูกกา",
            "StateProvince": "ปทุมธานี",
            "PostalCode": "12130",
            "Telephone": "02-531-3659",
            "WeeklyOperatingHours": "จันทร์ - เสาร์",
            "HoursOfOperation24": [
                {
                    "day": "",
                    "hours": "8:00 - 17:00"
                }
            ],
            "Products": "[Mobil 1 0W-40;]|[Mobil 1 5W-30;]|[Mobil 1 5W-50;]|[Mobil 1 Turbo Diesel 5W-40;]|[Mobil Super 2000 Turbospeed 10W-30;]"
        },
        {
            "DisplayName": "หจก.ยู.บี.อาร์.ออโต้เซอร์วิส",
            "AddressLine1": "85/2 ม.3 ถ.พระราม 2 ต.นาดี",
            "AddressLine2": "",
            "City": "อ.เมือง",
            "StateProvince": "สมุทรสาคร",
            "PostalCode": "74000",
            "Telephone": "061-8988884",
            "WeeklyOperatingHours": "จันทร์ - เสาร์",
            "HoursOfOperation24": [
                {
                    "day": "",
                    "hours": "8:00 - 17:00"
                }
            ],
            "Products": "[Mobil 1 0W-40;]|[Mobil 1 Turbo Diesel 5W-40;]|[Mobil Super 2000 Turbospeed 10W-30;]|[Mobil Super 2000 X2 10W-40;]"
        },
        {
            "DisplayName": "หจก.เคเอสเอ็ม เซอร์วิสเซส",
            "AddressLine1": "88/8-9 ม.11 ต.คลองมะเดื่อ",
            "AddressLine2": "",
            "City": "กระทุ่มแบน",
            "StateProvince": "สมุทรสาคร",
            "PostalCode": "74110",
            "Telephone": "034-470363",
            "WeeklyOperatingHours": "จันทร์ - เสาร์",
            "HoursOfOperation24": [
                {
                    "day": "",
                    "hours": "8:00 - 17:00"
                }
            ],
            "Products": "[Mobil Super 2000 Turbospeed 10W-30;]|[Mobil Delvac Super 1400 15W-40;]|[Mobil Delvac MX 15W-40;]"
        },
        {
            "DisplayName": "บริษัท 19 ซิตี้คาร์ จำกัด",
            "AddressLine1": "146 ถ.ติวานนท์",
            "AddressLine2": "ท่าทราย",
            "City": "อำเภอเมืองนนทบุรี",
            "StateProvince": "นนทบุรี",
            "PostalCode": "11000",
            "Telephone": "02-591-9249-51",
            "WeeklyOperatingHours": "จันทร์ - เสาร์",
            "HoursOfOperation24": [
                {
                    "day": "",
                    "hours": "8:00 - 17:00"
                }
            ],
            "Products": "[Mobil 1 0W-40;]|[Mobil 1 5W-30;]|[Mobil 1 5W-50;]|[Mobil 1 Turbo Diesel 5W-40;]|[Mobil Super 2000 Turbospeed 10W-30;]"
        },
        {
            "DisplayName": "หจก. หยอด ยอด ยาง",
            "AddressLine1": "117/17  ม.3",
            "AddressLine2": "บางขุนกอง",
            "City": "อำเภอบางกรวย",
            "StateProvince": "นนทบุรี",
            "PostalCode": "11130",
            "Telephone": "02-422-2625-26",
            "WeeklyOperatingHours": "จันทร์ - เสาร์",
            "HoursOfOperation24": [
                {
                    "day": "",
                    "hours": "8:00 - 17:00"
                }
            ],
            "Products": "[Mobil 1 0W-40;]|[Mobil 1 5W-50;]|[Mobil 1 Turbo Diesel 5W-40;]|[Mobil Super 2000 Turbospeed 10W-30;]"
        },
        {
            "DisplayName": "ร้าน พลว ยนตรการ",
            "AddressLine1": "36/54 ม.9 ถ.ติวานนท์ สหกรณ์ซอย 6",
            "AddressLine2": "บางพูด",
            "City": "อำเภอปากเกร็ด",
            "StateProvince": "นนทบุรี",
            "PostalCode": "11120",
            "Telephone": "02-584-6899",
            "WeeklyOperatingHours": "จันทร์ - เสาร์",
            "HoursOfOperation24": [
                {
                    "day": "",
                    "hours": "8:00 - 17:00"
                }
            ],
            "Products": "[Mobil 1 5W-50;]|[Mobil Delvac 1400 15W-40;]|[Mobil Super 2000 Turbospeed 10W-30;]"
        },
        {
            "DisplayName": "หจก. เอส.เจริญยนต์ เซอร์วิส",
            "AddressLine1": "3/33 ม.3",
            "AddressLine2": "บ้านใหม่",
            "City": "อำเภอปากเกร็ด",
            "StateProvince": "นนทบุรี",
            "PostalCode": "11120",
            "Telephone": "02-583-3344",
            "WeeklyOperatingHours": "จันทร์ - เสาร์",
            "HoursOfOperation24": [
                {
                    "day": "",
                    "hours": "8:00 - 17:00"
                }
            ],
            "Products": "[Mobil 1 0W-40;]|[Mobil 1 5W-30;]|[Mobil 1 5W-50;]|[Mobil 1 Turbo Diesel 5W-40;]|[Mobil Super 2000 Turbospeed 10W-30;]"
        },
        {
            "DisplayName": "หจก.เอ็น.วี.ยางยนต์",
            "AddressLine1": "210/2 ม.6 ถ.พุทธสาคร ต.สวนหลวง",
            "AddressLine2": "",
            "City": "อ.กระทุ่มแบน",
            "StateProvince": "สมุทรสาคร",
            "PostalCode": "74110",
            "Telephone": "034-446374",
            "WeeklyOperatingHours": "จันทร์ - เสาร์",
            "HoursOfOperation24": [
                {
                    "day": "",
                    "hours": "8:00 - 17:00"
                }
            ],
            "Products": "[Mobil 1 0W-30;]|[Mobil 1 0W-40;]|[Mobil 1 Turbo Desel 5W-40;]|[Mobil Super 3000 5W-30;]|[Mobil Super 3000 X2 5W-40;]|[Mobil Super 2000 Turbospeed 10W-30;]|[Mobil Super 2000 X2 10W-40;]"
        },
        {
            "DisplayName": "ซี.เอส.ไทร์",
            "AddressLine1": "2/8 ม.1 ถ.สาย 345",
            "AddressLine2": "บางคูวัด",
            "City": "อำเภอเมืองปทุมธานี",
            "StateProvince": "ปทุมธานี",
            "PostalCode": "12000",
            "Telephone": "02-976-0202",
            "WeeklyOperatingHours": "จันทร์ - เสาร์",
            "HoursOfOperation24": [
                {
                    "day": "",
                    "hours": "8:00 - 17:00"
                }
            ],
            "Products": "[Mobil 1 0W-40;]|[Mobil 1 5W-30;]|[Mobil 1 5W-50;]|[Mobil 1 Turbo Diesel 5W-40;]|[Mobil Super 2000 Turbospeed 10W-30;]"
        },
        {
            "DisplayName": "หจก.สุพรยางยนต์",
            "AddressLine1": "22/9 ม.2 ถ.เพชรเกษม ต.ยายชา",
            "AddressLine2": "",
            "City": "อ.สามพราน",
            "StateProvince": "นครปฐม",
            "PostalCode": "73110",
            "Telephone": "034-225345",
            "WeeklyOperatingHours": "จันทร์ - เสาร์",
            "HoursOfOperation24": [
                {
                    "day": "",
                    "hours": "8:00 - 17:00"
                }
            ],
            "Products": "[Mobil 1 0W-40;]|[Mobil 1 5W-50;]|[Mobil 1 Turbo Desel 5W-40;]|[Mobil Super 3000 X2 5W-40;]|[Mobil Super 3000 X2 5W-40;]|[Mobil Super 2000 Turbospeed 10W-30;]|[Mobil Super 2000 X2 10W-40;]|[Mobil Super 1000 Turbospeed 15W-40;]|[Mobil Super 1000 X2 20W-50;]|[Mobil Delvac Super 1400 15W-40;]|[Mobil Dlevac MX 15W-40;]"
        },
        {
            "DisplayName": "หจก. ออโต้ เซคชั่น",
            "AddressLine1": "14/3 ม.8 ถ.บางไผ่-หนองเพรางาย",
            "AddressLine2": "บางรักพัฒนา",
            "City": "อำเภอบางบัวทอง",
            "StateProvince": "นนทบุรี",
            "PostalCode": "11110",
            "Telephone": "02-911-2151",
            "WeeklyOperatingHours": "จันทร์ - เสาร์",
            "HoursOfOperation24": [
                {
                    "day": "",
                    "hours": "8:00 - 17:00"
                }
            ],
            "Products": "[Mobil 1 0W-40;]|[Mobil 1 5W-30;]|[Mobil 1 5W-50;]|[Mobil 1 Turbo Diesel 5W-40;]|[Mobil Super 2000 Turbospeed 10W-30;]"
        },
        {
            "DisplayName": "หจก. นวนคร ออโต้เซ็นต์เตอร์",
            "AddressLine1": "9/12-13  ม.19",
            "AddressLine2": "คลองหนึ่ง",
            "City": "อำเภอคลองหลวง",
            "StateProvince": "ปทุมธานี",
            "PostalCode": "12120",
            "Telephone": "081-645-8720",
            "WeeklyOperatingHours": "จันทร์ - เสาร์",
            "HoursOfOperation24": [
                {
                    "day": "",
                    "hours": "8:00 - 17:00"
                }
            ],
            "Products": "[Mobil 1 0W-40;]|[Mobil 1 5W-30;]|[Mobil 1 5W-50;]|[Mobil 1 Turbo Diesel 5W-40;]|[Mobil Super 2000 Turbospeed 10W-30;]"
        },
        {
            "DisplayName": "หจก.ชะอำ ฐ พลเจริญยนต์",
            "AddressLine1": "653/6 ถ.เพชรเกษม ต.ชะอำ",
            "AddressLine2": "",
            "City": "อ.ชะอำ",
            "StateProvince": "เพชรบุรี",
            "PostalCode": "76120",
            "Telephone": "032-470219",
            "WeeklyOperatingHours": "จันทร์ - เสาร์",
            "HoursOfOperation24": [
                {
                    "day": "",
                    "hours": "8:00 - 17:00"
                }
            ],
            "Products": "[Mobil Super 2000 Turbospeed 10W-30;]|[Mobil Super 2000 X2 10W-40;]|[Mobil Delvac Super 1400 15W-40;]"
        },
        {
            "DisplayName": "หจก.บ้านลาดออโต้เซอร์วิส",
            "AddressLine1": "160 ม.7 ต.บ้านลาด",
            "AddressLine2": "",
            "City": "อ.บ้านลาด",
            "StateProvince": "เพชรบุรี",
            "PostalCode": "76150",
            "Telephone": "083-9292558",
            "WeeklyOperatingHours": "จันทร์ - เสาร์",
            "HoursOfOperation24": [
                {
                    "day": "",
                    "hours": "8:00 - 17:00"
                }
            ],
            "Products": "[Mobil Super 2000 Turbospeed 10W-30;]|[Mobil Super 2000 X2 10W-40;]|[Mobil Delvac Super 1400 15W-40;]"
        },
        {
            "DisplayName": "หจก.แอล.พี.เซอร์วิส",
            "AddressLine1": "2/102 ถ.เพชรเกษม ต.หัวหิน",
            "AddressLine2": "",
            "City": "อ.หัวหิน",
            "StateProvince": "ประจวบคีรีขันธ์",
            "PostalCode": "77110",
            "Telephone": "032-511790",
            "WeeklyOperatingHours": "จันทร์ - เสาร์",
            "HoursOfOperation24": [
                {
                    "day": "",
                    "hours": "8:00 - 17:00"
                }
            ],
            "Products": "[Mobil 1 0W-40;]|[Mobil 1 5W-30;]|[Mobil 1 5W-50;]|[Mobil 1 Turbo Desel 5W-40;]|[Mobil Super 3000 5W-30;]|[Mobil Super 3000 X2 5W-40;]|[Mobil Super 2000 Turbospeed 10W-30;]|[Mobil Super 2000 X2 10W-40;]|[Mobil Super 1000 Turbospeed 15W-40;]|[Mobil Super 1000 X2 20W-50;]|[Mobil Delvac Super 1400 15W-40;]"
        },
        {
            "DisplayName": "หจก.พงษ์เซอร์วิส",
            "AddressLine1": "40 ม.2 ต.นครชัยศรี",
            "AddressLine2": "",
            "City": "อ.นครชัยศรี",
            "StateProvince": "นครปฐม",
            "PostalCode": "73120",
            "Telephone": "034-331441",
            "WeeklyOperatingHours": "จันทร์ - เสาร์",
            "HoursOfOperation24": [
                {
                    "day": "",
                    "hours": "8:00 - 17:00"
                }
            ],
            "Products": "[Mobil 1 0W-40;]|[Mobil Super 2000 Turbospeed 10W-30;]|[Mobil Super 2000 X2 10W-40;]|[Mobil Delvac Super 1400 15W-40;]"
        },
        {
            "DisplayName": "หจก. ม.บริการ",
            "AddressLine1": "242 ม.3 ถ.สายเอเชีย",
            "AddressLine2": "บ้านเลน",
            "City": "อำเภอบางปะอิน",
            "StateProvince": "พระนครศรีอยุธยา",
            "PostalCode": "13160",
            "Telephone": "081-852-3358",
            "WeeklyOperatingHours": "จันทร์ - เสาร์",
            "HoursOfOperation24": [
                {
                    "day": "",
                    "hours": "8:00 - 17:00"
                }
            ],
            "Products": "[Mobil Super 2000 Turbospeed 10W-30;]|[Mobil Super 2000 X2 10W-40;]|[Mobil Delvac Super 1400 15W-40;]|[Mobil Super 1000 Turbospeed 15W-40;]"
        },
        {
            "DisplayName": "อู่ อ๊อด ออโต้คาร์",
            "AddressLine1": "13/2 ม.5",
            "AddressLine2": "โคกแย้",
            "City": "อำเภอหนองแค",
            "StateProvince": "สระบุรี",
            "PostalCode": "18230",
            "Telephone": "089-502-7344",
            "WeeklyOperatingHours": "จันทร์ - เสาร์",
            "HoursOfOperation24": [
                {
                    "day": "",
                    "hours": "8:00 - 17:00"
                }
            ],
            "Products": "[Mobil Super 2000 Turbospeed 10W-30;]|[Mobil Super 2000 X2 10W-40;]|[Mobil 1 Turbo Diesel 5W-40;]|[Mobil Super 3000 5W-30;]"
        },
        {
            "DisplayName": "อินทร์ เซอร์วิส",
            "AddressLine1": "37/19-20  ม.4",
            "AddressLine2": "คุ้งลาน",
            "City": "อำเภอบางปะอิน",
            "StateProvince": "พระนครศรีอยุธยา",
            "PostalCode": "13160",
            "Telephone": "080-554-5948",
            "WeeklyOperatingHours": "จันทร์ - เสาร์",
            "HoursOfOperation24": [
                {
                    "day": "",
                    "hours": "8:00 - 17:00"
                }
            ],
            "Products": "[Mobil 1 5W-50;]|[Mobil 1 Turbo Diesel 5W-40;]|[Mobil Super 2000 Turbospeed 10W-30;]"
        },
        {
            "DisplayName": "อินทร์ เซอร์วิส",
            "AddressLine1": "35/25 ม.5",
            "AddressLine2": "คานหาม",
            "City": "อำเภออุทัย",
            "StateProvince": "พระนครศรีอยุธยา",
            "PostalCode": "13160",
            "Telephone": "0970802452",
            "WeeklyOperatingHours": "จันทร์ - เสาร์",
            "HoursOfOperation24": [
                {
                    "day": "",
                    "hours": "8:00 - 17:00"
                }
            ],
            "Products": "[Mobil 1 5W-50;]|[Mobil 1 Turbo Diesel 5W-40;]|[Mobil Super 2000 Turbospeed 10W-30;]"
        },
        {
            "DisplayName": "หจก.มานะยนต์",
            "AddressLine1": "7 ถ.เพชรเกษม ต.พระประโทน",
            "AddressLine2": "",
            "City": "อ.เมืองนครปฐม",
            "StateProvince": "นครปฐม",
            "PostalCode": "73000",
            "Telephone": "034-289108",
            "WeeklyOperatingHours": "จันทร์ - เสาร์",
            "HoursOfOperation24": [
                {
                    "day": "",
                    "hours": "8:00 - 17:00"
                }
            ],
            "Products": "[Mobil Super 2000 Turbospeed 10W-30;]|[Mobil Super 2000 X2 10W-40;]|[Mobil Delvac Super 1400 15W-40;]"
        },
        {
            "DisplayName": "อู่ เสรีทวีทรัพย์ยางยนต์",
            "AddressLine1": "74/8 ม.3",
            "AddressLine2": "หนองปลาไหล",
            "City": "อำเภอเมืองสระบุรี",
            "StateProvince": "สระบุรี",
            "PostalCode": "18000",
            "Telephone": "036-225-314",
            "WeeklyOperatingHours": "จันทร์ - เสาร์",
            "HoursOfOperation24": [
                {
                    "day": "",
                    "hours": "8:00 - 17:00"
                }
            ],
            "Products": "[Mobil 1 0W-40;]|[Mobil 1 5W-30;]|[Mobil 1 Turbo Diesel 5W-40;]|[Mobil Super 2000 Turbospeed 10W-30;]"
        },
        {
            "DisplayName": "เอก เซอร์วิส",
            "AddressLine1": "124 ม.3",
            "AddressLine2": "บ้านกรด",
            "City": "อำเภอบางปะอิน",
            "StateProvince": "พระนครศรีอยุธยา",
            "PostalCode": "13160",
            "Telephone": "035-880-629",
            "WeeklyOperatingHours": "จันทร์ - เสาร์",
            "HoursOfOperation24": [
                {
                    "day": "",
                    "hours": "8:00 - 17:00"
                }
            ],
            "Products": "[Mobil 1 0W-40;]|[Mobil 1 5W-50;]|[Mobil 1 Turbo Diesel 5W-40;]|[Mobil Super 2000 Turbospeed 10W-30;]"
        },
        {
            "DisplayName": "อยุธยา พ่อค้ารถยนต์",
            "AddressLine1": "41/6 ม.3 ถ.ศูนย์ราชการ",
            "AddressLine2": "คลองสวนพลู",
            "City": "อำเภอพระนครศรีอยุธยา",
            "StateProvince": "พระนครศรีอยุธยา",
            "PostalCode": "13000",
            "Telephone": "089-105-3366",
            "WeeklyOperatingHours": "จันทร์ - เสาร์",
            "HoursOfOperation24": [
                {
                    "day": "",
                    "hours": "8:00 - 17:00"
                }
            ],
            "Products": "[Mobil 1 0W-40;]|[Mobil 1 5W-50;]|[Mobil 1 Turbo Diesel 5W-40;]|[Mobil Super 2000 Turbospeed 10W-30;]"
        },
        {
            "DisplayName": "ไลด์ ออโต้ เซอร์วิส",
            "AddressLine1": "41/6 ม.3 ถ.ศูนย์ราชการ",
            "AddressLine2": "คลองสวนพลู",
            "City": "อำเภอพระนครศรีอยุธยา",
            "StateProvince": "พระนครศรีอยุธยา",
            "PostalCode": "13000",
            "Telephone": "089-105-3366",
            "WeeklyOperatingHours": "จันทร์ - เสาร์",
            "HoursOfOperation24": [
                {
                    "day": "",
                    "hours": "8:00 - 17:00"
                }
            ],
            "Products": "[Mobil 1 0W-40;]|[Mobil 1 5W-30;]|[Mobil 1 5W-50;]|[Mobil 1 Turbo Diesel 5W-40;]|[Mobil Super 2000 Turbospeed 10W-30;]"
        },
        {
            "DisplayName": "หจก.ที.พี.ออโต้เซอร์วิส",
            "AddressLine1": "127/11 ถ.มาลัยแมน ต.ลำพยา",
            "AddressLine2": "",
            "City": "อ.เมือง",
            "StateProvince": "นครปฐม",
            "PostalCode": "73000",
            "Telephone": "094-4650553",
            "WeeklyOperatingHours": "จันทร์ - เสาร์",
            "HoursOfOperation24": [
                {
                    "day": "",
                    "hours": "8:00 - 17:00"
                }
            ],
            "Products": "[Mobil Super 2000 Turbospeed 10W-30;]|[Mobil Super 2000 X2 10W-40;]"
        },
        {
            "DisplayName": "หจก.กิจจาเลิศการยาง",
            "AddressLine1": "544 ม.8 ต.บางเลน",
            "AddressLine2": "",
            "City": "อ.บางเลน",
            "StateProvince": "นครปฐม",
            "PostalCode": "73130",
            "Telephone": "034-234390",
            "WeeklyOperatingHours": "จันทร์ - เสาร์",
            "HoursOfOperation24": [
                {
                    "day": "",
                    "hours": "8:00 - 17:00"
                }
            ],
            "Products": "[Mobil 1 0W-40;]|[Mobil 1 5W-50;]|[Mobil Super 2000 Turbospeed 10W-30;]|[Mobil Super 2000 X2 10W-40;]|[Mobil Delvac Super 1400 15W-40;]"
        },
        {
            "DisplayName": "เมืองเพรียวอัดเบรค",
            "AddressLine1": "27/2-3-4 พหลโยธิน",
            "AddressLine2": "ปากเพรียว",
            "City": "อำเภอเมืองสระบุรี",
            "StateProvince": "สระบุรี",
            "PostalCode": "18000",
            "Telephone": "036-310-854",
            "WeeklyOperatingHours": "จันทร์ - เสาร์",
            "HoursOfOperation24": [
                {
                    "day": "",
                    "hours": "8:00 - 17:00"
                }
            ],
            "Products": "[Mobil Super 2000 Turbospeed 10W-30;]|[Mobil Super 2000 X2 10W-40;]|[Mobil Super 1000 Turbospeed 15W-40;]|[Mobil Delvac 1400 15W-40;]"
        },
        {
            "DisplayName": "เมืองเพรียวอัดเบรค 2007",
            "AddressLine1": "86 ม.5 ถ.มิตรภาพ",
            "AddressLine2": "ตาลเดี่ยว",
            "City": "อำเภอแก่งคอย",
            "StateProvince": "สระบุรี",
            "PostalCode": "18110",
            "Telephone": "036-245-464",
            "WeeklyOperatingHours": "จันทร์ - เสาร์",
            "HoursOfOperation24": [
                {
                    "day": "",
                    "hours": "8:00 - 17:00"
                }
            ],
            "Products": "[Mobil 1 0W-40;]|[Mobil 1 5W-30;]|[Mobil 1 5W-50;]|[Mobil 1 Turbo Diesel 5W-40;]|[Mobil Super 2000 Turbospeed 10W-30;]"
        },
        {
            "DisplayName": "ศูนย์บริการดาวเรือง คาร์แคร์ เซอร์ว",
            "AddressLine1": "773/3 ถ.พหลโยธิน",
            "AddressLine2": "ปากเพรียว",
            "City": "อำเภอเมืองสระบุรี",
            "StateProvince": "สระบุรี",
            "PostalCode": "18000",
            "Telephone": "088-2493916",
            "WeeklyOperatingHours": "จันทร์ - เสาร์",
            "HoursOfOperation24": [
                {
                    "day": "",
                    "hours": "8:00 - 17:00"
                }
            ],
            "Products": "[Mobil 1 5W-30;]|[Mobil 1 5W-50;]|[Mobil Super 2000 Turbospeed 10W-30;]|[Mobil Super 2000 X2 10W-40;]"
        },
        {
            "DisplayName": "A O เซอร์วิส",
            "AddressLine1": "10/1 ม.4",
            "AddressLine2": "น้ำเต้า",
            "City": "อำเภอบางบาล",
            "StateProvince": "พระนครศรีอยุธยา",
            "PostalCode": "13250",
            "Telephone": "081-8514541",
            "WeeklyOperatingHours": "จันทร์ - อาทิตย์",
            "HoursOfOperation24": [
                {
                    "day": "",
                    "hours": "8:00 - 20:00"
                }
            ],
            "Products": "[Mobil 1 0W-40;]|[Mobil 1 5W-30;]|[Mobil 1 5W-50;]|[Mobil 1 Turbo Diesel 5W-40;]|[Mobil Super 2000 Turbospeed 10W-30;]"
        },
        {
            "DisplayName": "หจก.น้ำเพชรออโต้แม็กซ์",
            "AddressLine1": "88 ม.6 ต.ดอนกระเบื้อง",
            "AddressLine2": "",
            "City": "อ.โพธาราม",
            "StateProvince": "ราชบุรี",
            "PostalCode": "70120",
            "Telephone": "032-389326",
            "WeeklyOperatingHours": "จันทร์ - เสาร์",
            "HoursOfOperation24": [
                {
                    "day": "",
                    "hours": "8:00 - 17:00"
                }
            ],
            "Products": "[Mobil 1 0W-30;]|[Mobil 1 0W-40;]|[Mobil 1 Turbo Desel 5W-40;]|[Mobil Delvac 15W-40;]|[Mobil Super 2000 Turbospeed 10W-30;]|[Mobil Super 2000 X2 10W-40;]|[Mobil Delvac Super 1400 15W-40;]"
        },
        {
            "DisplayName": "หจก. มวกเหล็กดำรงค์บริการ",
            "AddressLine1": "464 ม.9 ถ.มิตรภาพ",
            "AddressLine2": "มิตรภาพ",
            "City": "อำเภอมวกเหล็ก",
            "StateProvince": "สระบุรี",
            "PostalCode": "18180",
            "Telephone": "036-341-044",
            "WeeklyOperatingHours": "จันทร์ - เสาร์",
            "HoursOfOperation24": [
                {
                    "day": "",
                    "hours": "8:00 - 17:00"
                }
            ],
            "Products": "[Mobil Super 2000 Turbospeed 10W-30;]|[Mobil Super 2000 X2 10W-40;]|[Mobil Super 1000 Turbospeed 15W-40;]|[Mobil Delvac 1400 15W-40;]"
        },
        {
            "DisplayName": "หจก.ใหญ่ไพศาลออโต้เซอร์วิส",
            "AddressLine1": "154/4 ถ.เพชรเกษม(สายเก่า) ต.หน้าเมือง",
            "AddressLine2": "",
            "City": "อ.เมือง",
            "StateProvince": "ราชบุรี",
            "PostalCode": "70000",
            "Telephone": "032-325345",
            "WeeklyOperatingHours": "จันทร์ - เสาร์",
            "HoursOfOperation24": [
                {
                    "day": "",
                    "hours": "8:00 - 17:00"
                }
            ],
            "Products": "[Mobil 1 0W-30;]|[Mobil 1 0W-40;]|[Mobil 1 5W-30;]|[Mobil 1 Turbo Desel 5W-40;]|[Mobil Super 3000 5W-30;]|[Mobil Super 3000 X2 5W-40;]|[Mobil Super 2000 Turbospeed 10W-30;]|[Mobil Super 2000 X2 10W-40;]|[Mobil Delvac Super 1400 15W-40;]"
        },
        {
            "DisplayName": "หจก. กิตติชัย เทรดดิ้ง",
            "AddressLine1": "52/1 ม.2",
            "AddressLine2": "ห้วยบง",
            "City": "อำเภอเฉลิมพระเกียรติ",
            "StateProvince": "สระบุรี",
            "PostalCode": "18000",
            "Telephone": "036-318-074",
            "WeeklyOperatingHours": "จันทร์ - เสาร์",
            "HoursOfOperation24": [
                {
                    "day": "",
                    "hours": "8:00 - 17:00"
                }
            ],
            "Products": "[Mobil Super 2000 Turbospeed 10W-30;]|[Mobil Super 2000 X2 10W-40;]|[Mobil Super 1000 Turbospeed 15W-40;]|[Mobil Delvac 1400 15W-40;]"
        },
        {
            "DisplayName": "เอ็น เอ็น ออโต้เซอร์วิส",
            "AddressLine1": "106 ถ.มิตรภาพ",
            "AddressLine2": "หนองสาหร่าย",
            "City": "อำเภอปากช่อง",
            "StateProvince": "นครราชสีมา",
            "PostalCode": "30130",
            "Telephone": "081-812-3952",
            "WeeklyOperatingHours": "จันทร์ - เสาร์",
            "HoursOfOperation24": [
                {
                    "day": "",
                    "hours": "8:00 - 17:00"
                }
            ],
            "Products": "[Mobil Super 2000 Turbospeed 10W-30;]|[Mobil Super 2000 X2 10W-40;]|[Mobil Super 1000 Turbospeed 15W-40;]"
        },
        {
            "DisplayName": "หจก.สัมพันธ์ยนต์ออโต้พาร์ท",
            "AddressLine1": "78/3,4,5,6 ม.6 ต.ปากแรต",
            "AddressLine2": "",
            "City": "อ.บ้านโป่ง",
            "StateProvince": "ราชบุรี",
            "PostalCode": "70110",
            "Telephone": "032-222284",
            "WeeklyOperatingHours": "จันทร์ - เสาร์",
            "HoursOfOperation24": [
                {
                    "day": "",
                    "hours": "8:00 - 17:00"
                }
            ],
            "Products": "[Mobil Super 2000 Turbospeed 10W-30;]|[Mobil Super 2000 X2 10W-40;]|[Mobil Delvac Super 1400 15W-40;]"
        },
        {
            "DisplayName": "หจก.ส.สยามออโต้เซอร์วิส",
            "AddressLine1": "9/1 ม.7 ถ.มาลัยแมน ต.ทุ่งกระพังโหม",
            "AddressLine2": "",
            "City": "อ.กำแพงแสน",
            "StateProvince": "นครปฐม",
            "PostalCode": "73140",
            "Telephone": "034-355398",
            "WeeklyOperatingHours": "จันทร์ - เสาร์",
            "HoursOfOperation24": [
                {
                    "day": "",
                    "hours": "8:00 - 17:00"
                }
            ],
            "Products": "[Mobil 1 0W-40;]|[Mobil 1 5W-30;]|[Mobil 1 5W-50;]|[Mobil 1 Turbo Desel 5W-40;]|[Mobil Super 3000 5W-30;]|[Mobil Super 3000 X2 5W-40;]|[Mobil Super 2000 Turbospeed 10W-30;]|[Mobil Super 2000 X2 10W-40;]|[Mobil Super 1000 Turbospeed 15W-40;]|[Mobil Super 1000 X2 20W-50;]|[Mobil Delvac Super 1400 15W-40;]"
        },
        {
            "DisplayName": "หจก.ศิริถาวรการยาง",
            "AddressLine1": "150/2 ม.9 ต.ทุ่งลูกนก",
            "AddressLine2": "",
            "City": "อ.กำแพงแสน",
            "StateProvince": "นครปฐม",
            "PostalCode": "73140",
            "Telephone": "032-291287",
            "WeeklyOperatingHours": "จันทร์ - เสาร์",
            "HoursOfOperation24": [
                {
                    "day": "",
                    "hours": "8:00 - 17:00"
                }
            ],
            "Products": "[Mobil 1 0W-40;]|[Mobil 1 5W-30;]|[Mobil 1 Turbo Desel 5W-40;]|[Mobil Super 2000 Turbospeed 10W-30;]|[Mobil Super 2000 X2 10W-40;]|[Mobil Delvac Super 1400 15W-40;]|[Mobil Delvac MX 15W-40;]"
        },
        {
            "DisplayName": "หจก.เพชรเกษมยานยนต์พานิช",
            "AddressLine1": "25/5 ม.9 ต.ศิลาลอย",
            "AddressLine2": "",
            "City": "อ.สามร้อยยอด",
            "StateProvince": "ประจวบคีรีขันธ์",
            "PostalCode": "77180",
            "Telephone": "032-684125",
            "WeeklyOperatingHours": "จันทร์ - เสาร์",
            "HoursOfOperation24": [
                {
                    "day": "",
                    "hours": "8:00 - 17:00"
                }
            ],
            "Products": "[Mobil 1 0W-40;]|[Mobil 1 5W-30;]|[Mobil 1 Turbo Desel 5W-40;]|[Mobil Super 3000 5W-30;]|[Mobil Super 3000 X2 5W-40;]|[Mobil Super 2000 Turbospeed 10W-30;]|[Mobil Super 2000 X2 10W-40;]|[Mobil Super 1000 Turbospeed 15W-40;]|[Mobil Super 1000 X2 20W-50;]|[Mobil Delvac Super 1400 15W-40;]|[Mobil Delvac MX 15W-40;]"
        },
        {
            "DisplayName": "หจก.สุพรรณผ้าเบรคพัฒนา",
            "AddressLine1": "316 ม.6 ต.รั้วใหญ่",
            "AddressLine2": "",
            "City": "อ.เมือง",
            "StateProvince": "สุพรรณบุรี",
            "PostalCode": "72000",
            "Telephone": "035-511608",
            "WeeklyOperatingHours": "จันทร์ - เสาร์",
            "HoursOfOperation24": [
                {
                    "day": "",
                    "hours": "8:00 - 17:00"
                }
            ],
            "Products": "[Mobil 1 0W-30;]|[Mobil 1 0W-40;]|[Mobil 1 5W-30;]|[Mobil 1 5W-50;]|[Mobil 1 Turbo Desel 5W-40;]|[Mobil Super 3000 5W-30;]|[Mobil Super 3000 X2 5W-40;]|[Mobil Super 2000 Turbospeed 10W-30;]|[Mobil Super 2000 X2 10W-40;]|[Mobil Super 1000 Turbospeed 15W-40;]|[Mobil Super 1000 X2 20W-50;]|[Mobil Delvac Super 1400 15W-40;]|[Mobil Delvac MX 15W-40;]"
        },
        {
            "DisplayName": "ร้าน ประเสริฐศิลป์",
            "AddressLine1": "59/96 ม.3",
            "AddressLine2": "ป่าตาล",
            "City": "อำเภอเมืองลพบุรี",
            "StateProvince": "ลพบุรี",
            "PostalCode": "15000",
            "Telephone": "083-8468486",
            "WeeklyOperatingHours": "จันทร์ - เสาร์",
            "HoursOfOperation24": [
                {
                    "day": "",
                    "hours": "8:00 - 17:00"
                }
            ],
            "Products": "[Mobil 1 0W-40;]|[Mobil 1 5W-30;]|[Mobil 1 5W-50;]|[Mobil 1 Turbo Diesel 5W-40;]|[Mobil Super 2000 Turbospeed 10W-30;]"
        },
        {
            "DisplayName": "เอ แอนล์ เอ็น ออโตโมบิล",
            "AddressLine1": "123 ม.6",
            "AddressLine2": "โพตลาดแก้ว",
            "City": "อำเภอท่าวุ้ง",
            "StateProvince": "ลพบุรี",
            "PostalCode": "15150",
            "Telephone": "089-090-8933",
            "WeeklyOperatingHours": "จันทร์ - เสาร์",
            "HoursOfOperation24": [
                {
                    "day": "",
                    "hours": "8:00 - 17:00"
                }
            ],
            "Products": "[Mobil 1 5W-30;]|[Mobil 1 5W-50;]|[Mobil Super 2000 Turbospeed 10W-30;]"
        },
        {
            "DisplayName": "ทีบี เซอร์วิส",
            "AddressLine1": "73 ม.2",
            "AddressLine2": "บ้านกล้วย",
            "City": "อำเภอบ้านหมี่",
            "StateProvince": "ลพบุรี",
            "PostalCode": "15110",
            "Telephone": ".083-605-7987",
            "WeeklyOperatingHours": "จันทร์ - เสาร์",
            "HoursOfOperation24": [
                {
                    "day": "",
                    "hours": "8:00 - 17:00"
                }
            ],
            "Products": "[Mobil Super 2000 Turbospeed 10W-30;]|[Mobil Super 2000 X2 10W-40;]|[Mobil Super 1000 Turbospeed 15W-40;]|[Mobil Delvac 1400 15W-40;]"
        },
        {
            "DisplayName": "ร้าน ทีบี.เซอร์วิส",
            "AddressLine1": "217 ม.9",
            "AddressLine2": "ท่าแค",
            "City": "อำเภอเมืองลพบุรี",
            "StateProvince": "ลพบุรี",
            "PostalCode": "15000",
            "Telephone": "036-486-010",
            "WeeklyOperatingHours": "จันทร์ - เสาร์",
            "HoursOfOperation24": [
                {
                    "day": "",
                    "hours": "8:00 - 17:00"
                }
            ],
            "Products": "[Mobil 1 0W-40;]|[Mobil 1 5W-30;]|[Mobil 1 5W-50;]|[Mobil 1 Turbo Diesel 5W-40;]|[Mobil Super 2000 Turbospeed 10W-30;]"
        },
        {
            "DisplayName": "หจก. วี.อาร์.ออยล์",
            "AddressLine1": "74/1 ม.9",
            "AddressLine2": "อิสาณ",
            "City": "อำเภอเมืองบุรีรัมย์",
            "StateProvince": "บุรีรัมย์",
            "PostalCode": "31000",
            "Telephone": "044-690-079",
            "WeeklyOperatingHours": "จันทร์ - เสาร์",
            "HoursOfOperation24": [
                {
                    "day": "",
                    "hours": "8:00 - 17:00"
                }
            ],
            "Products": "[Mobil Super 2000 X2 10W-40;]|[Mobil Super 2000 Turbospeed 10W-30;]|[Mobil Delvac MX 15W-40;]|[Mobil Delvac 1400 15W-40;]"
        },
        {
            "DisplayName": "ร้าน อู่ ต่อเซอร์วิส",
            "AddressLine1": "603 ถ.สุรนารายณ์",
            "AddressLine2": "ในเมือง",
            "City": "อำเภอเมืองนครราชสีมา",
            "StateProvince": "นครราชสีมา",
            "PostalCode": "30000",
            "Telephone": "089-8491285",
            "WeeklyOperatingHours": "จันทร์ - เสาร์",
            "HoursOfOperation24": [
                {
                    "day": "",
                    "hours": "8:00 - 17:00"
                }
            ],
            "Products": "[Mobil 1 0W-40;]|[Mobil 1 5W-50;]|[Mobil 1 Turbo Diesel 5W-40;]"
        },
        {
            "DisplayName": "สมบูรณ์ ยางยนต์",
            "AddressLine1": "1163 ถ.สุรนารายณ์",
            "AddressLine2": "ในเมือง",
            "City": "อำเภอเมืองนครราชสีมา",
            "StateProvince": "นครราชสีมา",
            "PostalCode": "30000",
            "Telephone": "085-445-6693",
            "WeeklyOperatingHours": "จันทร์ - เสาร์",
            "HoursOfOperation24": [
                {
                    "day": "",
                    "hours": "8:00 - 17:00"
                }
            ],
            "Products": "[Mobil Super 2000 Turbospeed 10W-30;]|[Mobil Super 2000 X2 10W-40;]|[Mobil Delvac Super 1400 15W-40;]|[Mobil Super 1000 Turbospeed 15W-40;]"
        },
        {
            "DisplayName": "เสริมสุขศูนย์ล้อ",
            "AddressLine1": "299 ม.5",
            "AddressLine2": "ด่านขุนทด",
            "City": "อำเภอด่านขุนทด",
            "StateProvince": "นครราชสีมา",
            "PostalCode": "30210",
            "Telephone": "083-338-8252",
            "WeeklyOperatingHours": "จันทร์ - เสาร์",
            "HoursOfOperation24": [
                {
                    "day": "",
                    "hours": "8:00 - 17:00"
                }
            ],
            "Products": "[Mobil Super 2000 Turbospeed 10W-30;]|[Mobil Super 2000 X2 10W-40;]|[Mobil Delvac Super 1400 15W-40;]|[Mobil Super 1000 Turbospeed 15W-40;]"
        },
        {
            "DisplayName": "หจก.อ.เจริญยางดี",
            "AddressLine1": "17/9-10 ม.9 ต.ย่านยาว",
            "AddressLine2": "",
            "City": "อ.สามชุก",
            "StateProvince": "สุพรรณบุรี",
            "PostalCode": "72130",
            "Telephone": "035-434155",
            "WeeklyOperatingHours": "จันทร์ - เสาร์",
            "HoursOfOperation24": [
                {
                    "day": "",
                    "hours": "8:00 - 17:00"
                }
            ],
            "Products": "[Mobil 1 0W-40;]|[Mobil 1 Turbo Diesel 5W-40;]|[Mobil Super 3000 5W-30;]|[Mobil Super 3000 X2 5W-40;]|[Mobil Super 2000 Turbospeed 10W-30;]|[Mobil Super 2000 X2 10W-40;]|[Mobil Delvac Super 1400 15W-40;]"
        },
        {
            "DisplayName": "ศิริยางแดง",
            "AddressLine1": "39 ม.2",
            "AddressLine2": "โคกมะขาม",
            "City": "อำเภอประโคนชัย",
            "StateProvince": "บุรีรัมย์",
            "PostalCode": "31140",
            "Telephone": "080-722-8555",
            "WeeklyOperatingHours": "จันทร์ - เสาร์",
            "HoursOfOperation24": [
                {
                    "day": "",
                    "hours": "8:00 - 17:00"
                }
            ],
            "Products": "[Mobil Super 2000 Turbospeed 10W-30;]|[Mobil Super 2000 X2 10W-40;]|[Mobil Delvac Super 1400 15W-40;]|[Mobil Super 1000 Turbospeed 15W-40;]"
        },
        {
            "DisplayName": "ร้าน แชมเปี้ยนออโตแมช",
            "AddressLine1": "222 ม.3",
            "AddressLine2": "หันคา",
            "City": "อำเภอหันคา",
            "StateProvince": "ชัยนาท",
            "PostalCode": "17130",
            "Telephone": "056-422-661",
            "WeeklyOperatingHours": "จันทร์ - เสาร์",
            "HoursOfOperation24": [
                {
                    "day": "",
                    "hours": "8:00 - 17:00"
                }
            ],
            "Products": "[Mobil 1 5W-50;]|[Mobil 1 Turbo Diesel 5W-40;]|[Mobil Super 2000 Turbospeed 10W-30;]|[Mobil Delvac MX 15W-40;]"
        },
        {
            "DisplayName": "หจก.ด่านช้างศูนย์ล้อ",
            "AddressLine1": "379/1 ม.1 ต.ด่านช้าง",
            "AddressLine2": "",
            "City": "อ.ด่านช้าง",
            "StateProvince": "สุพรรณบุรี",
            "PostalCode": "72180",
            "Telephone": "099-2749262",
            "WeeklyOperatingHours": "จันทร์ - เสาร์",
            "HoursOfOperation24": [
                {
                    "day": "",
                    "hours": "8:00 - 17:00"
                }
            ],
            "Products": "[Mobil 1 0W-40;]|[Mobil 1 5W-30;]|[Mobil 1 5W-50;]|[Mobil 1 Turbo Desel 5W-40;]|[Mobil Super 3000 5W-30;]|[Mobil Super 3000 X2 5W-40;]|[Mobil Super 2000 Turbospeed 10W-30;]|[Mobil Super 2000 X2 10W-40;]|[Mobil Super 1000 Turbospeed 15W-40;]|[Mobil Super 1000 X2 20W-50;]|[Mobil Delvac Super 1400 15W-40;]|[Mobil Delvac MX 15W-40;]"
        },
        {
            "DisplayName": "หจก.ศิริรัตน์ยนตรการ",
            "AddressLine1": "31/3 ม.6 ต.กำเนิดนพคุณ",
            "AddressLine2": "",
            "City": "อ.บางสะพาน",
            "StateProvince": "ประจวบคีรีขันธ์",
            "PostalCode": "77340",
            "Telephone": "032-691381",
            "WeeklyOperatingHours": "จันทร์ - เสาร์",
            "HoursOfOperation24": [
                {
                    "day": "",
                    "hours": "8:00 - 17:00"
                }
            ],
            "Products": "[Mobil 1 0W-40;]|[Mobil 1 5W-30;]|[Mobil 1 5W-50;]|[Mobil 1 Turbo Desel 5W-40;]|[Mobil Super 3000 5W-30;]|[Mobil Super 3000 X2 5W-40;]|[Mobil Super 2000 Turbospeed 10W-30;]|[Mobil Super 2000 X2 10W-40;]|[Mobil Super 1000 Turbospeed 15W-40;]|[Mobil Super 1000 X2 20W-50;]|[Mobil Delvac Super 1400 15W-40;]"
        },
        {
            "DisplayName": "หจก.บีพี ศูนย์ล้อ",
            "AddressLine1": "109/4 หมู่ที่ 3 ตำบลบึงสามพัน",
            "AddressLine2": "",
            "City": "อ.เมืองสามพัน",
            "StateProvince": "เพชรบูรณ์",
            "PostalCode": "67160",
            "Telephone": "056-732-853 . 089-1691929",
            "WeeklyOperatingHours": "จันทร์ - อาทิตย์",
            "HoursOfOperation24": [
                {
                    "day": "",
                    "hours": "8:00 - 17:00"
                }
            ],
            "Products": "[Mobil Super 2000 Turbospeed 10W-30;]|[Mobil Super 2000 X2 10W-40;]|[Mobil Delvac Super 1400 15W-40;]"
        },
        {
            "DisplayName": "ราชัยยางยนต์",
            "AddressLine1": "136 ถ.พานิชย์เจริญ",
            "AddressLine2": "เมืองพล",
            "City": "อำเภอพล",
            "StateProvince": "ขอนแก่น",
            "PostalCode": "40120",
            "Telephone": "086-630-6686",
            "WeeklyOperatingHours": "จันทร์ - เสาร์",
            "HoursOfOperation24": [
                {
                    "day": "",
                    "hours": "8:00 - 17:00"
                }
            ],
            "Products": "[Mobil 1 0W-40;]|[Mobil 1 5W-30;]|[Mobil 1 5W-50;]|[Mobil 1 Turbo Diesel 5W-40;]|[Mobil Super 2000 Turbospeed 10W-30;]"
        },
        {
            "DisplayName": "ชุมพลเพชรยางยนต์",
            "AddressLine1": "222 ม.2 ตำบลดงขุย",
            "AddressLine2": "",
            "City": "อ.ชนแดน",
            "StateProvince": "เพชรบูรณ์",
            "PostalCode": "67190",
            "Telephone": "085-0543201",
            "WeeklyOperatingHours": "จันทร์ - อาทิตย์",
            "HoursOfOperation24": [
                {
                    "day": "",
                    "hours": "8:00 - 17:00"
                }
            ],
            "Products": "[Mobil 1 Turbo Diesel 5W-40;]|[Mobil Super 3000 5W-30;]|[Mobil Super 2000 Turbospeed 10W-30;]"
        },
        {
            "DisplayName": "พ.การช่าง",
            "AddressLine1": "17/3-4 ตำบลหอไกร",
            "AddressLine2": "",
            "City": "อ.บางมูลนาก",
            "StateProvince": "พิจิตร",
            "PostalCode": "66120",
            "Telephone": "083-4876345. 081-6753362 056-631688",
            "WeeklyOperatingHours": "จันทร์ - อาทิตย์",
            "HoursOfOperation24": [
                {
                    "day": "",
                    "hours": "8:00 - 17:00"
                }
            ],
            "Products": "[Mobil Super 2000 Turbospeed 10W-30;]|[Mobil Super 2000 X2 10W-40;]|[Mobil Delvac MX 15W-40;]"
        },
        {
            "DisplayName": "ห้างหุ้นส่วนจำกัด ปกรณ์ยนต์ แม็กซ์ไทร์",
            "AddressLine1": "42/21 ต.ท่าหลวง",
            "AddressLine2": "",
            "City": "อ.เมือง",
            "StateProvince": "พิจิตร",
            "PostalCode": "66000",
            "Telephone": "056-612-349",
            "WeeklyOperatingHours": "จันทร์ - อาทิตย์",
            "HoursOfOperation24": [
                {
                    "day": "",
                    "hours": "8:00 - 17:30"
                }
            ],
            "Products": "[Mobil Super 3000 5W-30;]|[Mobil Super 2000 Turbospeed 10W-30;]|[Mobil Super 2000 X2 10W-40;]"
        },
        {
            "DisplayName": "สากเหล็กศูนย์ล้อ",
            "AddressLine1": "104 หมู่14 ตำบลสากเหล็ก",
            "AddressLine2": "",
            "City": "อ.สากเหล็ก",
            "StateProvince": "พิจิตร",
            "PostalCode": "66160",
            "Telephone": "087-5713776",
            "WeeklyOperatingHours": "จันทร์ - อาทิตย์",
            "HoursOfOperation24": [
                {
                    "day": "",
                    "hours": "8:00 - 17:00"
                }
            ],
            "Products": "[Mobil Super 2000 Turbospeed 10W-30;]|[Mobil Super 2000 X2 10W-40;]|[Mobil Delvac MX 15W-40;]"
        },
        {
            "DisplayName": "หจก.แดน ออโต้ 1998 สาขาหน้าทอน",
            "AddressLine1": "70/4-8 หมู่ที่1 ตำบลอ่างทอง",
            "AddressLine2": "",
            "City": "อำเภอสมุย",
            "StateProvince": "จังหวัดสุราษฎร์ธานี",
            "PostalCode": "84220",
            "Telephone": "'077427123",
            "WeeklyOperatingHours": "จันทร์ - เสาร์",
            "HoursOfOperation24": [
                {
                    "day": "",
                    "hours": "9:00 - 17:00"
                }
            ],
            "Products": "[Mobil 1 0W-40;]|[Mobil 1 Turbo Diesel 5W-40;]|[Mobil Super 3000 X2 5W-40;]|[Mobil Super 3000 5W-30;]|[Mobil Super 2000 X2 10W-40;]|[Mobil Super 2000 Turbospeed 10W-30;]"
        },
        {
            "DisplayName": "หจก.บรรจงแอร์",
            "AddressLine1": "131 ถ.ราชการดำเนิน",
            "AddressLine2": "ในเมือง",
            "City": "อำเภอเมืองร้อยเอ็ด",
            "StateProvince": "ร้อยเอ็ด",
            "PostalCode": "45000",
            "Telephone": "080-3146622",
            "WeeklyOperatingHours": "จันทร์ - เสาร์",
            "HoursOfOperation24": [
                {
                    "day": "",
                    "hours": "8:00 - 17:00"
                }
            ],
            "Products": "[Mobil Super 2000 Turbospeed 10W-30;]|[Mobil Super 2000 X2 10W-40;]|[Mobil Delvac MX 15W-40;]|[Mobil Delvac 1400 15W-40;]"
        },
        {
            "DisplayName": "พีรพัฒน์บริการ",
            "AddressLine1": "418 ถ.ผดุงพานิชย์",
            "AddressLine2": "ในเมือง",
            "City": "อำเภอเมืองร้อยเอ็ด",
            "StateProvince": "ร้อยเอ็ด",
            "PostalCode": "45000",
            "Telephone": "087-088-1889",
            "WeeklyOperatingHours": "จันทร์ - เสาร์",
            "HoursOfOperation24": [
                {
                    "day": "",
                    "hours": "8:00 - 17:00"
                }
            ],
            "Products": "[Mobil 1 0W-40;]|[Mobil 1 5W-50;]|[Mobil 1 Turbo Diesel 5W-40;]|[Mobil Super 2000 Turbospeed 10W-30;]"
        },
        {
            "DisplayName": "3N ออโต้คาร์",
            "AddressLine1": "464 ม.9 ถ.ชยางกูร",
            "AddressLine2": "บุ่ง",
            "City": "อำเภอเมืองอำนาจเจริญ",
            "StateProvince": "อำนาจเจริญ",
            "PostalCode": "37000",
            "Telephone": "045-451-009",
            "WeeklyOperatingHours": "จันทร์ - เสาร์",
            "HoursOfOperation24": [
                {
                    "day": "",
                    "hours": "8:00 - 17:00"
                }
            ],
            "Products": "[Mobil 1 0W-40;]|[Mobil 1 5W-30;]|[Mobil 1 5W-50;]|[Mobil 1 Turbo Diesel 5W-40;]|[Mobil Super 2000 Turbospeed 10W-30;]"
        },
        {
            "DisplayName": "บจก. มงคลคาร์เซ็นเตอร์",
            "AddressLine1": "111 ม.18 ถ.ชยางกูร",
            "AddressLine2": "ขามใหญ่",
            "City": "อำเภอเมืองอุบลราชธานี",
            "StateProvince": "อุบลราชธานี",
            "PostalCode": "34000",
            "Telephone": "095-6133-066",
            "WeeklyOperatingHours": "จันทร์ - เสาร์",
            "HoursOfOperation24": [
                {
                    "day": "",
                    "hours": "8:00 - 17:00"
                }
            ],
            "Products": "[Mobil 1 0W-40;]|[Mobil 1 Turbo Diesel 5W-40;]|[Mobil Super 2000 Turbospeed 10W-30;]|[Mobil Super 3000 X2 5W-40;]|[Mobil Super 1000 X2 20W-50;]"
        },
        {
            "DisplayName": "ธวัชชัย ออโต้เซอร์วิส",
            "AddressLine1": "200 ม.3 ตำบลท่าโพธิ์",
            "AddressLine2": "",
            "City": "อ.เมือง",
            "StateProvince": "พิษณุโลก",
            "PostalCode": "65000",
            "Telephone": "081-9736365",
            "WeeklyOperatingHours": "จันทร์ - อาทิตย์",
            "HoursOfOperation24": [
                {
                    "day": "",
                    "hours": "8:00 - 17:00"
                }
            ],
            "Products": "[Mobil Super 3000 5W-30;]|[Mobil Super 2000 Turbospeed 10W-30;]|[Mobil Super 2000 X2 10W-40;]"
        },
        {
            "DisplayName": "บางระกำศูนย์ล้อ",
            "AddressLine1": "190/3 ม.7 ตำบลบางระกำ",
            "AddressLine2": "",
            "City": "อ.บางระกำ",
            "StateProvince": "พิษณุโลก",
            "PostalCode": "65140",
            "Telephone": "055-297373",
            "WeeklyOperatingHours": "จันทร์ - อาทิตย์",
            "HoursOfOperation24": [
                {
                    "day": "",
                    "hours": "7:00 - 18:00"
                }
            ],
            "Products": "[Mobil 1 Turbo Diesel 5W-40;]|[Mobil Super 3000 5W-30;]|[Mobil Super 2000 Turbospeed 10W-30;]"
        },
        {
            "DisplayName": "แสงจันทร์คาร์เซ็นเตอร์",
            "AddressLine1": "698/1 ต.ในเมือง",
            "AddressLine2": "",
            "City": "อ.เมือง",
            "StateProvince": "กำแพงเพชร",
            "PostalCode": "62000",
            "Telephone": "086-4307530",
            "WeeklyOperatingHours": "จันทร์ - อาทิตย์",
            "HoursOfOperation24": [
                {
                    "day": "",
                    "hours": "8:00 - 17:00"
                }
            ],
            "Products": "[Mobil Super 2000 Turbospeed 10W-30;]|[Mobil Super 2000 X2 10W-40;]"
        },
        {
            "DisplayName": "อู่ช่างเหวย",
            "AddressLine1": "399/1 ต.สมอแข อ.เมือง จ.พิษณุโลก",
            "AddressLine2": "",
            "City": "อ.เมือง",
            "StateProvince": "พิษณุโลก",
            "PostalCode": "65000",
            "Telephone": "081-9535259",
            "WeeklyOperatingHours": "จันทร์ - อาทิตย์",
            "HoursOfOperation24": [
                {
                    "day": "",
                    "hours": "8:00 - 17:00"
                }
            ],
            "Products": "[Mobil Super 2000 Turbospeed 10W-30;]|[Mobil Super 2000 X2 10W-40;]|[Mobil Delvac MX 15W-40;]"
        },
        {
            "DisplayName": "อู่ช่างหลาย",
            "AddressLine1": "345/1 ม.7 ต.สมอแข",
            "AddressLine2": "",
            "City": "อ.เมือง",
            "StateProvince": "พิษณุโลก",
            "PostalCode": "65000",
            "Telephone": "086-9273600 . 089-7063529",
            "WeeklyOperatingHours": "จันทร์ - เสาร์",
            "HoursOfOperation24": [
                {
                    "day": "",
                    "hours": "8:00 - 17:30"
                }
            ],
            "Products": "[Mobil Super 3000 5W-30;]|[Mobil Super 2000 Turbospeed 10W-30;]|[Mobil Super 2000 X2 10W-40;]"
        },
        {
            "DisplayName": "สุชาติเซอร์วิส",
            "AddressLine1": "499 ม.8 ต.สมอแข",
            "AddressLine2": "",
            "City": "อ.เมือง",
            "StateProvince": "พิษณุโลก",
            "PostalCode": "65000",
            "Telephone": "089-8566519",
            "WeeklyOperatingHours": "จันทร์ - อาทิตย์",
            "HoursOfOperation24": [
                {
                    "day": "",
                    "hours": "8:00 - 17:00"
                }
            ],
            "Products": "[Mobil Super 2000 Turbospeed 10W-30;]|[Mobil Super 2000 X2 10W-40;]|[Mobil Delvac MX 15W-40;]"
        },
        {
            "DisplayName": "หจก.ชัยเจริญยนต์ออโต้เซอร์วิส",
            "AddressLine1": "61 หมู่ที่3 ตำบลสมอทอง อำเภอท่าชนะ",
            "AddressLine2": "",
            "City": "อำเภอท่าชนะ",
            "StateProvince": "จังหวัดสุราษฎร์ธานี",
            "PostalCode": "84170",
            "Telephone": "085-8820829",
            "WeeklyOperatingHours": "จันทร์ - เสาร์",
            "HoursOfOperation24": [
                {
                    "day": "",
                    "hours": "9:00 - 17:00"
                }
            ],
            "Products": "[Mobil 1 0W-40;]|[Mobil 1 Turbo Diesel 5W-40;]|[Mobil Super 3000 X2 5W-40;]|[Mobil Super 3000 5W-30;]|[Mobil Super 2000 X2 10W-40;]|[Mobil Super 2000 Turbospeed 10W-30;]"
        },
        {
            "DisplayName": "ภานุพงษ์ออโต้เซอร์วิส",
            "AddressLine1": "68/4 หมู่ที่ 10 ตำบลในเมือง",
            "AddressLine2": "",
            "City": "อ.เมือง",
            "StateProvince": "พิษณุโลก",
            "PostalCode": "65000",
            "Telephone": "055-215284 . 081-8876360",
            "WeeklyOperatingHours": "จันทร์ - เสาร์",
            "HoursOfOperation24": [
                {
                    "day": "",
                    "hours": "8:30 - 17:30"
                }
            ],
            "Products": "[Mobil 1 FS X2 5W-50;]|[Mobil Super 3000 5W-30;]|[Mobil Super 2000 X2 10W-40;]"
        },
        {
            "DisplayName": "เจริญการยาง",
            "AddressLine1": "259/4 หมู่ที่ 1 ต.พรหมพิราม",
            "AddressLine2": "",
            "City": "อ.พรหมพิราม",
            "StateProvince": "พิษณุโลก",
            "PostalCode": "65150",
            "Telephone": "055-369050",
            "WeeklyOperatingHours": "จันทร์ - อาทิตย์",
            "HoursOfOperation24": [
                {
                    "day": "",
                    "hours": "7:30 - 17:00"
                }
            ],
            "Products": "[Mobil Super 2000 Turbospeed 10W-30;]|[Mobil Super 2000 X2 10W-40;]|[Mobil Delvac MX 15W-40;]"
        },
        {
            "DisplayName": "อู่ไพโรจน์ เซอร์วิส",
            "AddressLine1": "46/22 หมู่ที่ 1 ถนนกาญจนวิถี ตำบลบางกุ้ง",
            "AddressLine2": "",
            "City": "อำเภอเมืองสุราษฎร์ธานี",
            "StateProvince": "จังหวัดสุราษฎร์ธานี",
            "PostalCode": "84000",
            "Telephone": "'0818922322",
            "WeeklyOperatingHours": "จันทร์ - เสาร์",
            "HoursOfOperation24": [
                {
                    "day": "",
                    "hours": "8:00 - 17:00"
                }
            ],
            "Products": "[Mobil 1 0W-40;]|[Mobil 1 Turbo Diesel 5W-40;]|[Mobil Super 3000 X2 5W-40;]|[Mobil Super 3000 5W-30;]|[Mobil Super 2000 X2 10W-40;]|[Mobil Super 2000 Turbospeed 10W-30;]"
        },
        {
            "DisplayName": "ร้าน วีรพรเซอร์วิส",
            "AddressLine1": "110 ม.2",
            "AddressLine2": "ศรีสงคราม",
            "City": "อำเภอวังสะพุง",
            "StateProvince": "เลย",
            "PostalCode": "42130",
            "Telephone": "089-620-8265",
            "WeeklyOperatingHours": "จันทร์ - เสาร์",
            "HoursOfOperation24": [
                {
                    "day": "",
                    "hours": "8:00 - 17:00"
                }
            ],
            "Products": "[Mobil 1 Turbo Diesel 5W-40;]|[Mobil Super 2000 Turbospeed 10W-30;]|[Mobil Delvac MX 15W-40;]|[Mobil Delvac 1400 15W-40;]"
        },
        {
            "DisplayName": "ช.ศรีอรุณการยาง",
            "AddressLine1": "13/1 ม.1 ต.ปากแคว",
            "AddressLine2": "",
            "City": "อ.เมือง",
            "StateProvince": "สุโขทัย",
            "PostalCode": "64000",
            "Telephone": "055-610810. 081-7279133",
            "WeeklyOperatingHours": "จันทร์ - อาทิตย์",
            "HoursOfOperation24": [
                {
                    "day": "",
                    "hours": "8:00 - 17:30"
                }
            ],
            "Products": "[Mobil Super 2000 Turbospeed 10W-30;]|[Mobil Super 2000 X2 10W-40;]|[Mobil Delvac MX 15W-40;]"
        },
        {
            "DisplayName": "หจก. ยูดี แม๊กซ์ กรุ๊ป",
            "AddressLine1": "189/1-2-3  ถ.รอบเมือง ม.6",
            "AddressLine2": "หนองบัว",
            "City": "อำเภอเมืองอุดรธานี",
            "StateProvince": "อุดรธานี",
            "PostalCode": "41000",
            "Telephone": "042-323-755",
            "WeeklyOperatingHours": "จันทร์ - เสาร์",
            "HoursOfOperation24": [
                {
                    "day": "",
                    "hours": "8:00 - 17:00"
                }
            ],
            "Products": "[Mobil 1 0W-40;]|[Mobil 1 5W-30;]|[Mobil 1 5W-50;]|[Mobil 1 Turbo Diesel 5W-40;]|[Mobil Super 2000 Turbospeed 10W-30;]"
        },
        {
            "DisplayName": "วิชัยอุดร",
            "AddressLine1": "184 ม.2",
            "AddressLine2": "หมากแข้ง",
            "City": "อำเภอเมืองอุดรธานี",
            "StateProvince": "อุดรธานี",
            "PostalCode": "41000",
            "Telephone": "086-855-4554",
            "WeeklyOperatingHours": "จันทร์ - เสาร์",
            "HoursOfOperation24": [
                {
                    "day": "",
                    "hours": "8:00 - 17:00"
                }
            ],
            "Products": "[Mobil 1 0W-40;]|[Mobil 1 5W-30;]|[Mobil 1 Turbo Diesel 5W-40;]|[Mobil Super 2000 Turbospeed 10W-30;]"
        },
        {
            "DisplayName": "ศรีสุขศูนย์ล้อ",
            "AddressLine1": "63 ม.2",
            "AddressLine2": "บ้านตาด",
            "City": "อำเภอเมืองอุดรธานี",
            "StateProvince": "อุดรธานี",
            "PostalCode": "41000",
            "Telephone": "086-458-1734",
            "WeeklyOperatingHours": "จันทร์ - เสาร์",
            "HoursOfOperation24": [
                {
                    "day": "",
                    "hours": "8:00 - 17:00"
                }
            ],
            "Products": "[Mobil Super 2000 Turbospeed 10W-30;]|[Mobil Super 2000 X2 10W-40;]|[Mobil Super 1000 Turbospeed 15W-40;]|[Mobil Super 3000 5W-30;]"
        },
        {
            "DisplayName": "ศรีสุขศูนย์ล้อ",
            "AddressLine1": "132/3 ถ.ศรีสุข",
            "AddressLine2": "หมากแข้ง",
            "City": "อำเภอเมืองอุดรธานี",
            "StateProvince": "อุดรธานี",
            "PostalCode": "41000",
            "Telephone": "042-223-852",
            "WeeklyOperatingHours": "จันทร์ - เสาร์",
            "HoursOfOperation24": [
                {
                    "day": "",
                    "hours": "8:00 - 17:00"
                }
            ],
            "Products": "[Mobil 1 0W-40;]|[Mobil 1 5W-30;]|[Mobil 1 5W-50;]|[Mobil 1 Turbo Diesel 5W-40;]|[Mobil Super 2000 Turbospeed 10W-30;]"
        },
        {
            "DisplayName": "หจก.สยามเซอร์วิส 1994 (สาขา 2)",
            "AddressLine1": "198/14 ถนนอ้อมค่ายวชิราวุธ ตำบลท่าวัง",
            "AddressLine2": "",
            "City": "อำเภอเมือง",
            "StateProvince": "จังหวัดนครศรีธรรมราช",
            "PostalCode": "80000",
            "Telephone": "075 318 364",
            "WeeklyOperatingHours": "จันทร์ - เสาร์",
            "HoursOfOperation24": [
                {
                    "day": "",
                    "hours": "8:00 - 17:00"
                }
            ],
            "Products": "[Mobil 1 0W-40;]|[Mobil 1 Turbo Diesel 5W-40;]|[Mobil Super 3000 X2 5W-40;]|[Mobil Super 3000 5W-30;]|[Mobil Super 2000 X2 10W-40;]|[Mobil Super 2000 Turbospeed 10W-30;]"
        },
        {
            "DisplayName": "หจก. ตาขุนยานยนต์",
            "AddressLine1": "118/2-3 หมู่ที่ 4 ตำบลเขาวง",
            "AddressLine2": "",
            "City": "อำเภอบ้านตาขุน",
            "StateProvince": "จังหวัดสุราษฎร์ธานี",
            "PostalCode": "84230",
            "Telephone": "077261159",
            "WeeklyOperatingHours": "จันทร์ - เสาร์",
            "HoursOfOperation24": [
                {
                    "day": "",
                    "hours": "8:00 - 17:00"
                }
            ],
            "Products": "[Mobil 1 0W-40;]|[Mobil 1 Turbo Diesel 5W-40;]|[Mobil Super 3000 X2 5W-40;]|[Mobil Super 3000 5W-30;]|[Mobil Super 2000 X2 10W-40;]|[Mobil Super 2000 Turbospeed 10W-30;]"
        },
        {
            "DisplayName": "ร้าน เทคนิคยางยนต์",
            "AddressLine1": "88/88 ถ.ชยางกูร ข.",
            "AddressLine2": "มุกดาหาร",
            "City": "อำเภอเมืองมุกดาหาร",
            "StateProvince": "มุกดาหาร",
            "PostalCode": "49000",
            "Telephone": "094-3856764",
            "WeeklyOperatingHours": "จันทร์ - เสาร์",
            "HoursOfOperation24": [
                {
                    "day": "",
                    "hours": "8:00 - 17:00"
                }
            ],
            "Products": "[Mobil 1 5W-50;]|[Mobil 1 Turbo Diesel 5W-40;]|[Mobil Delvac MX 15W-40;]|[Mobil Super 2000 X2 10W-40;]"
        },
        {
            "DisplayName": "เอกการช่าง",
            "AddressLine1": "9/18 หมู่ที่ 1 ตำบลอิปัน",
            "AddressLine2": "",
            "City": "อำเภอพระแสง",
            "StateProvince": "จังหวัดสุราษฎร์ธานี",
            "PostalCode": "84210",
            "Telephone": "0929156369",
            "WeeklyOperatingHours": "",
            "HoursOfOperation24": [],
            "Products": "[Mobil 1 0W-40;]|[Mobil 1 Turbo Diesel 5W-40;]|[Mobil Super 3000 X2 5W-40;]|[Mobil Super 3000 5W-30;]|[Mobil Super 2000 X2 10W-40;]|[Mobil Super 2000 Turbospeed 10W-30;]"
        },
        {
            "DisplayName": "รุ่งเรืองวิทย์",
            "AddressLine1": "381 ม.4 ต.ช้างกลางอ.ช้างกลางจ.นครศรีฯ80250",
            "AddressLine2": "",
            "City": "อำเภอช้างกลาง",
            "StateProvince": "จังหวัดนครศรีธรรมราช",
            "PostalCode": "80250",
            "Telephone": "075 355 392",
            "WeeklyOperatingHours": "จันทร์ - เสาร์",
            "HoursOfOperation24": [
                {
                    "day": "",
                    "hours": "8:00 - 17:00"
                }
            ],
            "Products": "[Mobil 1 0W-40;]|[Mobil 1 Turbo Diesel 5W-40;]|[Mobil Super 3000 X2 5W-40;]|[Mobil Super 3000 5W-30;]|[Mobil Super 2000 X2 10W-40;]|[Mobil Super 2000 Turbospeed 10W-30;]"
        },
        {
            "DisplayName": "ต่อมออโต้เซอร์วิส",
            "AddressLine1": "348 ม.7 ถ.บ้านดุง-หนองเม็ก",
            "AddressLine2": "ศรีสุทโธ",
            "City": "อำเภอบ้านดุง",
            "StateProvince": "อุดรธานี",
            "PostalCode": "41190",
            "Telephone": "081-556-4450",
            "WeeklyOperatingHours": "จันทร์ - เสาร์",
            "HoursOfOperation24": [
                {
                    "day": "",
                    "hours": "8:00 - 17:00"
                }
            ],
            "Products": "[Mobil 1 0W-40;]|[Mobil 1 5W-30;]|[Mobil 1 5W-50;]|[Mobil 1 Turbo Diesel 5W-40;]|[Mobil Super 2000 Turbospeed 10W-30;]"
        },
        {
            "DisplayName": "ธนภัท เซอร์วิส",
            "AddressLine1": "19 ม.5",
            "AddressLine2": "ฝั่งแดง",
            "City": "อำเภอธาตุพนม",
            "StateProvince": "นครพนม",
            "PostalCode": "48110",
            "Telephone": "089-712-5365",
            "WeeklyOperatingHours": "จันทร์ - เสาร์",
            "HoursOfOperation24": [
                {
                    "day": "",
                    "hours": "8:00 - 17:00"
                }
            ],
            "Products": "[Mobil Super 2000 Turbospeed 10W-30;]|[Mobil Super 2000 X2 10W-40;]"
        },
        {
            "DisplayName": "สยามออโต้ไทร์",
            "AddressLine1": "247/3 หมู่ที่ 8 ตำบลชะมาย",
            "AddressLine2": "",
            "City": "อำเภอทุ่งสง",
            "StateProvince": "จังหวัดนครศรีธรรมราช",
            "PostalCode": "80110",
            "Telephone": "075 450 366",
            "WeeklyOperatingHours": "จันทร์ - เสาร์",
            "HoursOfOperation24": [
                {
                    "day": "",
                    "hours": "8:00 - 17:00"
                }
            ],
            "Products": "[Mobil 1 0W-40;]|[Mobil 1 Turbo Diesel 5W-40;]|[Mobil Super 3000 X2 5W-40;]|[Mobil Super 3000 5W-30;]|[Mobil Super 2000 X2 10W-40;]|[Mobil Super 2000 Turbospeed 10W-30;]"
        },
        {
            "DisplayName": "สยามออโต้เซ็นเตอร์",
            "AddressLine1": "247/3 หมู่ที่ 8 ตำบลชะมาย",
            "AddressLine2": "",
            "City": "อำเภอทุ่งสง",
            "StateProvince": "จังหวัดนครศรีธรรมราช",
            "PostalCode": "80110",
            "Telephone": "075412897",
            "WeeklyOperatingHours": "จันทร์ - เสาร์",
            "HoursOfOperation24": [
                {
                    "day": "",
                    "hours": "8:00 - 17:00"
                }
            ],
            "Products": "[Mobil 1 0W-40;]|[Mobil 1 Turbo Diesel 5W-40;]|[Mobil Super 3000 X2 5W-40;]|[Mobil Super 3000 5W-30;]|[Mobil Super 2000 X2 10W-40;]|[Mobil Super 2000 Turbospeed 10W-30;]"
        },
        {
            "DisplayName": "อู่เจริญเซอร์วิส",
            "AddressLine1": "78 หมู่ที่ 2 ตำบลควนกรด",
            "AddressLine2": "",
            "City": "อำเภอทุ่งสง",
            "StateProvince": "จังหวัดนครศรีธรรมราช",
            "PostalCode": "80110",
            "Telephone": "087 273 5958",
            "WeeklyOperatingHours": "จันทร์ - เสาร์",
            "HoursOfOperation24": [
                {
                    "day": "",
                    "hours": "8:00 - 17:00"
                }
            ],
            "Products": "[Mobil 1 0W-40;]|[Mobil 1 Turbo Diesel 5W-40;]|[Mobil Super 3000 X2 5W-40;]|[Mobil Super 3000 5W-30;]|[Mobil Super 2000 X2 10W-40;]|[Mobil Super 2000 Turbospeed 10W-30;]"
        },
        {
            "DisplayName": "ช.พันช่าง บ้านน้อยคาร์แคร์",
            "AddressLine1": "50 ม.6",
            "AddressLine2": "ท่าอุเทน",
            "City": "อำเภอท่าอุเทน",
            "StateProvince": "นครพนม",
            "PostalCode": "48120",
            "Telephone": "087-963-0333",
            "WeeklyOperatingHours": "จันทร์ - เสาร์",
            "HoursOfOperation24": [
                {
                    "day": "",
                    "hours": "8:00 - 17:00"
                }
            ],
            "Products": "[Mobil Super 2000 X2 10W-40;]|[Mobil 1 Turbo Diesel 5W-40;]|[Mobil Super 2000 Turbospeed 10W-30;]|[Mobil Delvac MX 15W-40;]|[Mobil Delvac 1400 15W-40;]"
        },
        {
            "DisplayName": "เอสเอ็กซ์ การาจ",
            "AddressLine1": "118/3 หมู่ที่ 7 ตำบลศรีสุนทร",
            "AddressLine2": "",
            "City": "อำเภอถลาง",
            "StateProvince": "จังหวัดภูเก็ต",
            "PostalCode": "83110",
            "Telephone": "095-0839604 . 089-5873262",
            "WeeklyOperatingHours": "จันทร์ - เสาร์",
            "HoursOfOperation24": [
                {
                    "day": "",
                    "hours": "9:00 - 17:00"
                }
            ],
            "Products": "[Mobil 1 0W-40;]|[Mobil 1 Turbo Diesel 5W-40;]|[Mobil Super 3000 X2 5W-40;]|[Mobil Super 3000 5W-30;]|[Mobil Super 2000 X2 10W-40;]|[Mobil Super 2000 Turbospeed 10W-30;]"
        },
        {
            "DisplayName": "รัสท์การ์ดปัตตานี",
            "AddressLine1": "12/17 หมู่ที่ 4 ถนนหนองจิก ตำบลรูสะมิแล",
            "AddressLine2": "",
            "City": "อำเภอเมือง",
            "StateProvince": "จังหวัดปัตตานี",
            "PostalCode": "94000",
            "Telephone": "073 332 073",
            "WeeklyOperatingHours": "จันทร์ - อาทิตย์",
            "HoursOfOperation24": [
                {
                    "day": "",
                    "hours": "8:00 - 17:00"
                }
            ],
            "Products": "[Mobil 1 0W-40;]|[Mobil 1 Turbo Diesel 5W-40;]|[Mobil Super 3000 X2 5W-40;]|[Mobil Super 3000 5W-30;]|[Mobil Super 2000 X2 10W-40;]|[Mobil Super 2000 Turbospeed 10W-30;]"
        },
        {
            "DisplayName": "หจก. ดิยางยนต์",
            "AddressLine1": "1471 หมู่ที่3 ตำบลกำแพง",
            "AddressLine2": "",
            "City": "อำเภอละงู",
            "StateProvince": "จังหวัดสตูล",
            "PostalCode": "91110",
            "Telephone": "074 799 727",
            "WeeklyOperatingHours": "จันทร์ - เสาร์",
            "HoursOfOperation24": [
                {
                    "day": "",
                    "hours": "9:00 - 17:00"
                }
            ],
            "Products": "[Mobil 1 0W-40;]|[Mobil 1 Turbo Diesel 5W-40;]|[Mobil Super 3000 X2 5W-40;]|[Mobil Super 3000 5W-30;]|[Mobil Super 2000 X2 10W-40;]|[Mobil Super 2000 Turbospeed 10W-30;]"
        },
        {
            "DisplayName": "พลออโต้ช๊อพ",
            "AddressLine1": "39/9 ม.2 ตำบลตลาดขวัญ",
            "AddressLine2": "",
            "City": "อ.ดอยสะเก็ด",
            "StateProvince": "เชียงใหม่",
            "PostalCode": "50220",
            "Telephone": "084-6126924",
            "WeeklyOperatingHours": "จันทร์ - เสาร์",
            "HoursOfOperation24": [
                {
                    "day": "",
                    "hours": "8:00 - 17:00"
                }
            ],
            "Products": "[Mobil Super 2000 Turbospeed 10W-30;]|[Mobil Super 2000 X2 10W-40;]|[Mobil Delvac MX 15W-40;]"
        },
        {
            "DisplayName": "หจก.เฉลียวศักดิ์ยางยนต์",
            "AddressLine1": "264 ถนนสิโรรส ตำบลสะเตง",
            "AddressLine2": "",
            "City": "อำเภอเมือง",
            "StateProvince": "จังหวัดยะลา",
            "PostalCode": "95000",
            "Telephone": "073 223 222",
            "WeeklyOperatingHours": "จันทร์ - เสาร์",
            "HoursOfOperation24": [
                {
                    "day": "",
                    "hours": "9:00 - 17:00"
                }
            ],
            "Products": "[Mobil 1 0W-40;]|[Mobil 1 Turbo Diesel 5W-40;]|[Mobil Super 3000 X2 5W-40;]|[Mobil Super 3000 5W-30;]|[Mobil Super 2000 X2 10W-40;]|[Mobil Super 2000 Turbospeed 10W-30;]"
        },
        {
            "DisplayName": "วังเหนือยางยนต์",
            "AddressLine1": "394 ม. 4 ถ.พะเยา-แม่ขะจาน ต.วังเหนือ",
            "AddressLine2": "",
            "City": "อ.วังเหนือ",
            "StateProvince": "ลำปาง",
            "PostalCode": "65140",
            "Telephone": "054-332366/089-5616525",
            "WeeklyOperatingHours": "จันทร์ - เสาร์",
            "HoursOfOperation24": [
                {
                    "day": "",
                    "hours": "8:00 - 17:00"
                }
            ],
            "Products": "[Mobil Super 2000 Turbospeed 10W-30;]|[Mobil Delvac MX 15W-40;]"
        },
        {
            "DisplayName": "หจก.เอส.วี.ประดับยนต์",
            "AddressLine1": "47 ถนนสุริยะประดิษฐ์ ตำบลบางนาค",
            "AddressLine2": "",
            "City": "อำเภอเมือง",
            "StateProvince": "จังหวัดนราธิวาส",
            "PostalCode": "96000",
            "Telephone": "073516111. 073513888. 073516333",
            "WeeklyOperatingHours": "จันทร์ - เสาร์",
            "HoursOfOperation24": [
                {
                    "day": "",
                    "hours": "9:00 - 17:00"
                }
            ],
            "Products": "[Mobil 1 0W-40;]|[Mobil 1 Turbo Diesel 5W-40;]|[Mobil Super 3000 X2 5W-40;]|[Mobil Super 3000 5W-30;]|[Mobil Super 2000 X2 10W-40;]|[Mobil Super 2000 Turbospeed 10W-30;]"
        },
        {
            "DisplayName": "แม่ขะจานยางยนต์",
            "AddressLine1": "614 ม.1 บ้านแม่ขะจาน ต.แม่เจดีย์",
            "AddressLine2": "",
            "City": "อ.เวียงป่าเป้า",
            "StateProvince": "เชียงราย",
            "PostalCode": "57260",
            "Telephone": "087-9927723/083-704040",
            "WeeklyOperatingHours": "จันทร์ - อาทิตย์",
            "HoursOfOperation24": [
                {
                    "day": "",
                    "hours": "8:00 - 17:00"
                }
            ],
            "Products": "[Mobil 1 5W-30;]|[Mobil Super 2000 Turbospeed 10W-30;]|[Mobil Delvac MX 15W-40;]"
        },
        {
            "DisplayName": "วิสุทธิ์ยนต์ 2",
            "AddressLine1": "135 ม.1 ถ.เทิง-เชียงของ ต.เวียง",
            "AddressLine2": "",
            "City": "อ.เทิง",
            "StateProvince": "เชียงราย",
            "PostalCode": "57160",
            "Telephone": "084-5012980",
            "WeeklyOperatingHours": "จันทร์ - เสาร์",
            "HoursOfOperation24": [
                {
                    "day": "",
                    "hours": "8:00 - 17:00"
                }
            ],
            "Products": "[Mobil Super 2000 Turbospeed 10W-30;]|[Mobil Super 2000 X2 10W-40;]|[Mobil Delvac MX 15W-40;]"
        },
        {
            "DisplayName": "วัชระยนต์",
            "AddressLine1": "94 หมู่ที่ 14 ถนนเทิงเชียงของ ตำบลป่าตาล",
            "AddressLine2": "",
            "City": "อ.ขุนตาล",
            "StateProvince": "เชียงราย",
            "PostalCode": "67340",
            "Telephone": "053-657289. 089-5585549",
            "WeeklyOperatingHours": "จันทร์ - เสาร์",
            "HoursOfOperation24": [
                {
                    "day": "",
                    "hours": "8:00 - 17:00"
                }
            ],
            "Products": "[Mobil Super 2000 Turbospeed 10W-30;]|[Mobil Super 2000 X2 10W-40;]|[Mobil Delvac MX 15W-40;]"
        },
        {
            "DisplayName": "คนองยนต์เซอร์วิส",
            "AddressLine1": "145/1 ม.3 ถนนเชียงราย - เวียงชัย ตำบลรอบเวียง",
            "AddressLine2": "",
            "City": "อ.เมือง",
            "StateProvince": "เชียงราย",
            "PostalCode": "57000",
            "Telephone": "053-746230. 086-9128551",
            "WeeklyOperatingHours": "จันทร์ - เสาร์",
            "HoursOfOperation24": [
                {
                    "day": "",
                    "hours": "8:30 - 17:30"
                }
            ],
            "Products": "[Mobil Super 2000 Turbospeed 10W-30;]|[Mobil Super 2000 X2 10W-40;]"
        },
        {
            "DisplayName": "พี.วี. เซอร์วิส",
            "AddressLine1": "742/6 ถ.พหลโยธิน ตำบลเวียง",
            "AddressLine2": "",
            "City": "อ.เมือง",
            "StateProvince": "เชียงราย",
            "PostalCode": "57000",
            "Telephone": "089-6340290. 053-716822",
            "WeeklyOperatingHours": "จันทร์ - เสาร์",
            "HoursOfOperation24": [
                {
                    "day": "",
                    "hours": "8:00 - 18:00"
                }
            ],
            "Products": "[Mobil 1 5W-30;]|[Mobil Super 2000 Turbospeed 10W-30;]|[Mobil Delvac MX 15W-40;]"
        }
    ]
}